[
{"name":"Paris","zipcode":"75","county":{"code":"75","name":"Paris"},"coords":{"latitude":"48.85","longitude":"2.35"}},
{"name":"Ablis","zipcode":"78660","county":{"code":"78","name":"Yvelines"},"coords":{"latitude":"48.5167","longitude":"1.84167"}},
{"name":"Ach\u00e8res","zipcode":"78260","county":{"code":"78","name":"Yvelines"},"coords":{"latitude":"48.9667","longitude":"2.06667"}},
{"name":"Adainville","zipcode":"78113","county":{"code":"78","name":"Yvelines"},"coords":{"latitude":"48.7167","longitude":"1.65"}},
{"name":"Aigremont","zipcode":"78240","county":{"code":"78","name":"Yvelines"},"coords":{"latitude":"48.9","longitude":"2.01667"}},
{"name":"Allainville","zipcode":"78660","county":{"code":"78","name":"Yvelines"},"coords":{"latitude":"48.4583","longitude":"1.9"}},
{"name":"Andelu","zipcode":"78770","county":{"code":"78","name":"Yvelines"},"coords":{"latitude":"48.8833","longitude":"1.81667"}},
{"name":"Andr\u00e9sy","zipcode":"78570","county":{"code":"78","name":"Yvelines"},"coords":{"latitude":"48.9833","longitude":"2.06667"}},
{"name":"Arnouville l\u00e8s Mantes","zipcode":"78790","county":{"code":"78","name":"Yvelines"},"coords":{"latitude":"48.9","longitude":"1.73333"}},
{"name":"Aubergenville","zipcode":"78410","county":{"code":"78","name":"Yvelines"},"coords":{"latitude":"48.9667","longitude":"1.85"}},
{"name":"Auffargis","zipcode":"78610","county":{"code":"78","name":"Yvelines"},"coords":{"latitude":"48.7","longitude":"1.88333"}},
{"name":"Auffreville Brasseuil","zipcode":"78930","county":{"code":"78","name":"Yvelines"},"coords":{"latitude":"48.95","longitude":"1.71"}},
{"name":"Aulnay sur Mauldre","zipcode":"78126","county":{"code":"78","name":"Yvelines"},"coords":{"latitude":"48.9333","longitude":"1.85"}},
{"name":"Auteuil le Roi","zipcode":"78770","county":{"code":"78","name":"Yvelines"},"coords":{"latitude":"48.8333","longitude":"1.81667"}},
{"name":"Autouillet","zipcode":"78770","county":{"code":"78","name":"Yvelines"},"coords":{"latitude":"48.85","longitude":"1.8"}},
{"name":"B\u00e9houst","zipcode":"78910","county":{"code":"78","name":"Yvelines"},"coords":{"latitude":"48.8333","longitude":"1.73333"}},
{"name":"Bailly","zipcode":"78870","county":{"code":"78","name":"Yvelines"},"coords":{"latitude":"48.85","longitude":"2.08333"}},
{"name":"Bazainville","zipcode":"78550","county":{"code":"78","name":"Yvelines"},"coords":{"latitude":"48.8","longitude":"1.66667"}},
{"name":"Bazemont","zipcode":"78580","county":{"code":"78","name":"Yvelines"},"coords":{"latitude":"48.9333","longitude":"1.86667"}},
{"name":"Bazoches sur Guyonne","zipcode":"78490","county":{"code":"78","name":"Yvelines"},"coords":{"latitude":"48.7833","longitude":"1.85"}},
{"name":"Bennecourt","zipcode":"78270","county":{"code":"78","name":"Yvelines"},"coords":{"latitude":"49.0333","longitude":"1.56667"}},
{"name":"Beynes","zipcode":"78650","county":{"code":"78","name":"Yvelines"},"coords":{"latitude":"48.85","longitude":"1.86667"}},
{"name":"Blaru","zipcode":"78270","county":{"code":"78","name":"Yvelines"},"coords":{"latitude":"49.05","longitude":"1.48333"}},
{"name":"Boinville en Mantois","zipcode":"78930","county":{"code":"78","name":"Yvelines"},"coords":{"latitude":"48.9333","longitude":"1.76667"}},
{"name":"Boinville le Gaillard","zipcode":"78660","county":{"code":"78","name":"Yvelines"},"coords":{"latitude":"48.4917","longitude":"1.86667"}},
{"name":"Boinvilliers","zipcode":"78200","county":{"code":"78","name":"Yvelines"},"coords":{"latitude":"48.9167","longitude":"1.66667"}},
{"name":"Bois d'Arcy","zipcode":"78390","county":{"code":"78","name":"Yvelines"},"coords":{"latitude":"48.8","longitude":"2.01667"}},
{"name":"Boissets","zipcode":"78910","county":{"code":"78","name":"Yvelines"},"coords":{"latitude":"48.85","longitude":"1.58333"}},
{"name":"Boissy Mauvoisin","zipcode":"78200","county":{"code":"78","name":"Yvelines"},"coords":{"latitude":"48.9667","longitude":"1.58333"}},
{"name":"Boissy sans Avoir","zipcode":"78490","county":{"code":"78","name":"Yvelines"},"coords":{"latitude":"48.8167","longitude":"1.8"}},
{"name":"Bonnelles","zipcode":"78830","county":{"code":"78","name":"Yvelines"},"coords":{"latitude":"48.6167","longitude":"2.03333"}},
{"name":"Bonni\u00e8res sur Seine","zipcode":"78270","county":{"code":"78","name":"Yvelines"},"coords":{"latitude":"49.0333","longitude":"1.58333"}},
{"name":"Bouafle","zipcode":"78410","county":{"code":"78","name":"Yvelines"},"coords":{"latitude":"48.9667","longitude":"1.9"}},
{"name":"Bougival","zipcode":"78380","county":{"code":"78","name":"Yvelines"},"coords":{"latitude":"48.8667","longitude":"2.13333"}},
{"name":"Bourdonn\u00e9","zipcode":"78113","county":{"code":"78","name":"Yvelines"},"coords":{"latitude":"48.75","longitude":"1.66667"}},
{"name":"Br\u00e9val","zipcode":"78980","county":{"code":"78","name":"Yvelines"},"coords":{"latitude":"48.95","longitude":"1.53333"}},
{"name":"Breuil Bois Robert","zipcode":"78930","county":{"code":"78","name":"Yvelines"},"coords":{"latitude":"48.95","longitude":"1.71667"}},
{"name":"Brueil en Vexin","zipcode":"78440","county":{"code":"78","name":"Yvelines"},"coords":{"latitude":"49.03","longitude":"1.82"}},
{"name":"Buc","zipcode":"78530","county":{"code":"78","name":"Yvelines"},"coords":{"latitude":"48.7667","longitude":"2.13333"}},
{"name":"Buchelay","zipcode":"78200","county":{"code":"78","name":"Yvelines"},"coords":{"latitude":"48.9833","longitude":"1.66667"}},
{"name":"Bullion","zipcode":"78830","county":{"code":"78","name":"Yvelines"},"coords":{"latitude":"48.6167","longitude":"2"}},
{"name":"Carri\u00e8res sous Poissy","zipcode":"78955","county":{"code":"78","name":"Yvelines"},"coords":{"latitude":"48.95","longitude":"2.03333"}},
{"name":"Carri\u00e8res sur Seine","zipcode":"78420","county":{"code":"78","name":"Yvelines"},"coords":{"latitude":"48.9167","longitude":"2.18333"}},
{"name":"Cernay la Ville","zipcode":"78720","county":{"code":"78","name":"Yvelines"},"coords":{"latitude":"48.6667","longitude":"1.96667"}},
{"name":"Ch\u00e2teaufort","zipcode":"78117","county":{"code":"78","name":"Yvelines"},"coords":{"latitude":"48.7333","longitude":"2.1"}},
{"name":"Chambourcy","zipcode":"78240","county":{"code":"78","name":"Yvelines"},"coords":{"latitude":"48.9","longitude":"2.03333"}},
{"name":"Chanteloup les Vignes","zipcode":"78570","county":{"code":"78","name":"Yvelines"},"coords":{"latitude":"48.9833","longitude":"2.03333"}},
{"name":"Chapet","zipcode":"78130","county":{"code":"78","name":"Yvelines"},"coords":{"latitude":"48.9667","longitude":"1.93333"}},
{"name":"Chatou","zipcode":"78400","county":{"code":"78","name":"Yvelines"},"coords":{"latitude":"48.8833","longitude":"2.15"}},
{"name":"Chaufour l\u00e8s Bonni\u00e8res","zipcode":"78270","county":{"code":"78","name":"Yvelines"},"coords":{"latitude":"49.0167","longitude":"1.48333"}},
{"name":"Chavenay","zipcode":"78450","county":{"code":"78","name":"Yvelines"},"coords":{"latitude":"48.85","longitude":"1.98333"}},
{"name":"Chevreuse","zipcode":"78460","county":{"code":"78","name":"Yvelines"},"coords":{"latitude":"48.7","longitude":"2.05"}},
{"name":"Choisel","zipcode":"78460","county":{"code":"78","name":"Yvelines"},"coords":{"latitude":"48.6833","longitude":"2.01667"}},
{"name":"Civry la For\u00eat","zipcode":"78910","county":{"code":"78","name":"Yvelines"},"coords":{"latitude":"48.8667","longitude":"1.61667"}},
{"name":"Clairefontaine en Yvelines","zipcode":"78120","county":{"code":"78","name":"Yvelines"},"coords":{"latitude":"48.61","longitude":"1.9"}},
{"name":"Coigni\u00e8res","zipcode":"78310","county":{"code":"78","name":"Yvelines"},"coords":{"latitude":"48.75","longitude":"1.91667"}},
{"name":"Cond\u00e9 sur Vesgre","zipcode":"78113","county":{"code":"78","name":"Yvelines"},"coords":{"latitude":"48.7333","longitude":"1.66667"}},
{"name":"Conflans Sainte Honorine","zipcode":"78700","county":{"code":"78","name":"Yvelines"},"coords":{"latitude":"48.9833","longitude":"2.1"}},
{"name":"Courgent","zipcode":"78790","county":{"code":"78","name":"Yvelines"},"coords":{"latitude":"48.9","longitude":"1.66667"}},
{"name":"Cravent","zipcode":"78270","county":{"code":"78","name":"Yvelines"},"coords":{"latitude":"49","longitude":"1.48333"}},
{"name":"Crespi\u00e8res","zipcode":"78121","county":{"code":"78","name":"Yvelines"},"coords":{"latitude":"48.8833","longitude":"1.93333"}},
{"name":"Croissy sur Seine","zipcode":"78290","county":{"code":"78","name":"Yvelines"},"coords":{"latitude":"48.8667","longitude":"2.13333"}},
{"name":"Dammartin en Serve","zipcode":"78111","county":{"code":"78","name":"Yvelines"},"coords":{"latitude":"48.9","longitude":"1.61667"}},
{"name":"Dampierre en Yvelines","zipcode":"78720","county":{"code":"78","name":"Yvelines"},"coords":{"latitude":"48.7","longitude":"1.98"}},
{"name":"Dannemarie","zipcode":"78550","county":{"code":"78","name":"Yvelines"},"coords":{"latitude":"48.7667","longitude":"1.61667"}},
{"name":"Davron","zipcode":"78810","county":{"code":"78","name":"Yvelines"},"coords":{"latitude":"48.8667","longitude":"1.93333"}},
{"name":"Drocourt","zipcode":"78440","county":{"code":"78","name":"Yvelines"},"coords":{"latitude":"49.05","longitude":"1.76667"}},
{"name":"Ecquevilly","zipcode":"78920","county":{"code":"78","name":"Yvelines"},"coords":{"latitude":"48.95","longitude":"1.91667"}},
{"name":"Elancourt","zipcode":"78990","county":{"code":"78","name":"Yvelines"},"coords":{"latitude":"48.7833","longitude":"1.95"}},
{"name":"Emanc\u00e9","zipcode":"78125","county":{"code":"78","name":"Yvelines"},"coords":{"latitude":"48.5833","longitude":"1.73333"}},
{"name":"Ep\u00f4ne","zipcode":"78680","county":{"code":"78","name":"Yvelines"},"coords":{"latitude":"48.95","longitude":"1.81667"}},
{"name":"Evecquemont","zipcode":"78740","county":{"code":"78","name":"Yvelines"},"coords":{"latitude":"49.0167","longitude":"1.95"}},
{"name":"Favrieux","zipcode":"78200","county":{"code":"78","name":"Yvelines"},"coords":{"latitude":"48.95","longitude":"1.65"}},
{"name":"Feucherolles","zipcode":"78810","county":{"code":"78","name":"Yvelines"},"coords":{"latitude":"48.8667","longitude":"1.96667"}},
{"name":"Flacourt","zipcode":"78200","county":{"code":"78","name":"Yvelines"},"coords":{"latitude":"48.9333","longitude":"1.65"}},
{"name":"Flexanville","zipcode":"78910","county":{"code":"78","name":"Yvelines"},"coords":{"latitude":"48.85","longitude":"1.73333"}},
{"name":"Flins Neuve Eglise","zipcode":"78790","county":{"code":"78","name":"Yvelines"},"coords":{"latitude":"48.8833","longitude":"1.58333"}},
{"name":"Flins sur Seine","zipcode":"78410","county":{"code":"78","name":"Yvelines"},"coords":{"latitude":"48.9667","longitude":"1.86667"}},
{"name":"Follainville Dennemont","zipcode":"78520","county":{"code":"78","name":"Yvelines"},"coords":{"latitude":"49.0167","longitude":"1.71667"}},
{"name":"Fontenay le Fleury","zipcode":"78330","county":{"code":"78","name":"Yvelines"},"coords":{"latitude":"48.8167","longitude":"2.05"}},
{"name":"Fontenay Mauvoisin","zipcode":"78200","county":{"code":"78","name":"Yvelines"},"coords":{"latitude":"48.9667","longitude":"1.65"}},
{"name":"Fontenay Saint P\u00e8re","zipcode":"78440","county":{"code":"78","name":"Yvelines"},"coords":{"latitude":"49.0333","longitude":"1.75"}},
{"name":"Fourqueux","zipcode":"78112","county":{"code":"78","name":"Yvelines"},"coords":{"latitude":"48.8833","longitude":"2.06667"}},
{"name":"Freneuse","zipcode":"78840","county":{"code":"78","name":"Yvelines"},"coords":{"latitude":"49.05","longitude":"1.6"}},
{"name":"Gaillon sur Montcient","zipcode":"78250","county":{"code":"78","name":"Yvelines"},"coords":{"latitude":"49.02","longitude":"1.89"}},
{"name":"Galluis","zipcode":"78490","county":{"code":"78","name":"Yvelines"},"coords":{"latitude":"48.8","longitude":"1.8"}},
{"name":"Gambais","zipcode":"78950","county":{"code":"78","name":"Yvelines"},"coords":{"latitude":"48.7667","longitude":"1.66667"}},
{"name":"Gambaiseuil","zipcode":"78490","county":{"code":"78","name":"Yvelines"},"coords":{"latitude":"48.75","longitude":"1.73333"}},
{"name":"Garanci\u00e8res","zipcode":"78890","county":{"code":"78","name":"Yvelines"},"coords":{"latitude":"48.8167","longitude":"1.75"}},
{"name":"Gargenville","zipcode":"78440","county":{"code":"78","name":"Yvelines"},"coords":{"latitude":"49","longitude":"1.81667"}},
{"name":"Gazeran","zipcode":"78125","county":{"code":"78","name":"Yvelines"},"coords":{"latitude":"48.6333","longitude":"1.76667"}},
{"name":"Gommecourt","zipcode":"78270","county":{"code":"78","name":"Yvelines"},"coords":{"latitude":"49.0833","longitude":"1.6"}},
{"name":"Goupilli\u00e8res","zipcode":"78770","county":{"code":"78","name":"Yvelines"},"coords":{"latitude":"48.8833","longitude":"1.76667"}},
{"name":"Goussonville","zipcode":"78930","county":{"code":"78","name":"Yvelines"},"coords":{"latitude":"48.9167","longitude":"1.76667"}},
{"name":"Grandchamp","zipcode":"78113","county":{"code":"78","name":"Yvelines"},"coords":{"latitude":"48.7167","longitude":"1.61667"}},
{"name":"Gressey","zipcode":"78550","county":{"code":"78","name":"Yvelines"},"coords":{"latitude":"48.8333","longitude":"1.6"}},
{"name":"Grosrouvre","zipcode":"78490","county":{"code":"78","name":"Yvelines"},"coords":{"latitude":"48.7833","longitude":"1.76667"}},
{"name":"Guernes","zipcode":"78520","county":{"code":"78","name":"Yvelines"},"coords":{"latitude":"49.0167","longitude":"1.63333"}},
{"name":"Guerville","zipcode":"78930","county":{"code":"78","name":"Yvelines"},"coords":{"latitude":"48.9333","longitude":"1.73333"}},
{"name":"Guitrancourt","zipcode":"78440","county":{"code":"78","name":"Yvelines"},"coords":{"latitude":"49.0167","longitude":"1.78333"}},
{"name":"Guyancourt","zipcode":"78280","county":{"code":"78","name":"Yvelines"},"coords":{"latitude":"48.7667","longitude":"2.06667"}},
{"name":"Hardricourt","zipcode":"78250","county":{"code":"78","name":"Yvelines"},"coords":{"latitude":"49","longitude":"1.9"}},
{"name":"Hargeville","zipcode":"78790","county":{"code":"78","name":"Yvelines"},"coords":{"latitude":"48.9","longitude":"1.73333"}},
{"name":"Herbeville","zipcode":"78580","county":{"code":"78","name":"Yvelines"},"coords":{"latitude":"48.9","longitude":"1.88333"}},
{"name":"Hermeray","zipcode":"78125","county":{"code":"78","name":"Yvelines"},"coords":{"latitude":"48.65","longitude":"1.68"}},
{"name":"Houdan","zipcode":"78550","county":{"code":"78","name":"Yvelines"},"coords":{"latitude":"48.7833","longitude":"1.6"}},
{"name":"Houilles","zipcode":"78800","county":{"code":"78","name":"Yvelines"},"coords":{"latitude":"48.9167","longitude":"2.2"}},
{"name":"Issou","zipcode":"78440","county":{"code":"78","name":"Yvelines"},"coords":{"latitude":"49","longitude":"1.78333"}},
{"name":"Jambville","zipcode":"78440","county":{"code":"78","name":"Yvelines"},"coords":{"latitude":"49.05","longitude":"1.85"}},
{"name":"Jeufosse","zipcode":"78270","county":{"code":"78","name":"Yvelines"},"coords":{"latitude":"49.0333","longitude":"1.55"}},
{"name":"Jouars Pontchartrain","zipcode":"78760","county":{"code":"78","name":"Yvelines"},"coords":{"latitude":"48.7833","longitude":"1.9"}},
{"name":"Jouy en Josas","zipcode":"78350","county":{"code":"78","name":"Yvelines"},"coords":{"latitude":"48.7667","longitude":"2.16667"}},
{"name":"Jouy Mauvoisin","zipcode":"78200","county":{"code":"78","name":"Yvelines"},"coords":{"latitude":"48.9833","longitude":"1.65"}},
{"name":"Jumeauville","zipcode":"78580","county":{"code":"78","name":"Yvelines"},"coords":{"latitude":"48.9167","longitude":"1.78333"}},
{"name":"Juziers","zipcode":"78820","county":{"code":"78","name":"Yvelines"},"coords":{"latitude":"49","longitude":"1.85"}},
{"name":"La Boissi\u00e8re Ecole","zipcode":"78125","county":{"code":"78","name":"Yvelines"},"coords":{"latitude":"48.6833","longitude":"1.65"}},
{"name":"La Celle les Bordes","zipcode":"78720","county":{"code":"78","name":"Yvelines"},"coords":{"latitude":"48.6333","longitude":"1.95"}},
{"name":"La Celle Saint Cloud","zipcode":"78170","county":{"code":"78","name":"Yvelines"},"coords":{"latitude":"48.85","longitude":"2.15"}},
{"name":"La Falaise","zipcode":"78410","county":{"code":"78","name":"Yvelines"},"coords":{"latitude":"48.95","longitude":"1.83333"}},
{"name":"La Hauteville","zipcode":"78113","county":{"code":"78","name":"Yvelines"},"coords":{"latitude":"48.7","longitude":"1.61667"}},
{"name":"La Queue les Yvelines","zipcode":"78940","county":{"code":"78","name":"Yvelines"},"coords":{"latitude":"48.8","longitude":"1.76667"}},
{"name":"La Verri\u00e8re","zipcode":"78320","county":{"code":"78","name":"Yvelines"},"coords":{"latitude":"48.75","longitude":"1.95"}},
{"name":"La Villeneuve en Chevrie","zipcode":"78270","county":{"code":"78","name":"Yvelines"},"coords":{"latitude":"49.0167","longitude":"1.53333"}},
{"name":"L\u00e9vis Saint Nom","zipcode":"78320","county":{"code":"78","name":"Yvelines"},"coords":{"latitude":"48.7167","longitude":"1.95"}},
{"name":"Lainville en Vexin","zipcode":"78440","county":{"code":"78","name":"Yvelines"},"coords":{"latitude":"49.0667","longitude":"1.81667"}},
{"name":"Le Chesnay","zipcode":"78150","county":{"code":"78","name":"Yvelines"},"coords":{"latitude":"48.825","longitude":"2.125"}},
{"name":"Le Mesnil le Roi","zipcode":"78600","county":{"code":"78","name":"Yvelines"},"coords":{"latitude":"48.93","longitude":"2.12"}},
{"name":"Le Mesnil Saint Denis","zipcode":"78320","county":{"code":"78","name":"Yvelines"},"coords":{"latitude":"48.7333","longitude":"1.96667"}},
{"name":"Le Pecq","zipcode":"78230","county":{"code":"78","name":"Yvelines"},"coords":{"latitude":"48.9","longitude":"2.1"}},
{"name":"Le Perray en Yvelines","zipcode":"78610","county":{"code":"78","name":"Yvelines"},"coords":{"latitude":"48.7","longitude":"1.85"}},
{"name":"Le Port Marly","zipcode":"78560","county":{"code":"78","name":"Yvelines"},"coords":{"latitude":"48.8833","longitude":"2.11667"}},
{"name":"Le Tartre Gaudran","zipcode":"78113","county":{"code":"78","name":"Yvelines"},"coords":{"latitude":"48.7","longitude":"1.6"}},
{"name":"Le Tertre Saint Denis","zipcode":"78980","county":{"code":"78","name":"Yvelines"},"coords":{"latitude":"48.9333","longitude":"1.61667"}},
{"name":"Le Tremblay sur Mauldre","zipcode":"78490","county":{"code":"78","name":"Yvelines"},"coords":{"latitude":"48.7833","longitude":"1.86667"}},
{"name":"Le V\u00e9sinet","zipcode":"78110","county":{"code":"78","name":"Yvelines"},"coords":{"latitude":"48.9","longitude":"2.11667"}},
{"name":"Les Alluets le Roi","zipcode":"78580","county":{"code":"78","name":"Yvelines"},"coords":{"latitude":"48.9167","longitude":"1.91667"}},
{"name":"Les Br\u00e9viaires","zipcode":"78610","county":{"code":"78","name":"Yvelines"},"coords":{"latitude":"48.7","longitude":"1.81667"}},
{"name":"Les Clayes sous Bois","zipcode":"78340","county":{"code":"78","name":"Yvelines"},"coords":{"latitude":"48.8167","longitude":"1.98333"}},
{"name":"Les Essarts le Roi","zipcode":"78690","county":{"code":"78","name":"Yvelines"},"coords":{"latitude":"48.7167","longitude":"1.9"}},
{"name":"Les Loges en Josas","zipcode":"78350","county":{"code":"78","name":"Yvelines"},"coords":{"latitude":"48.7667","longitude":"2.13333"}},
{"name":"Les Mesnuls","zipcode":"78490","county":{"code":"78","name":"Yvelines"},"coords":{"latitude":"48.75","longitude":"1.83333"}},
{"name":"Les Mureaux","zipcode":"78130","county":{"code":"78","name":"Yvelines"},"coords":{"latitude":"49","longitude":"1.91667"}},
{"name":"L'Etang la Ville","zipcode":"78620","county":{"code":"78","name":"Yvelines"},"coords":{"latitude":"48.8667","longitude":"2.06667"}},
{"name":"Limay","zipcode":"78520","county":{"code":"78","name":"Yvelines"},"coords":{"latitude":"48.9833","longitude":"1.73333"}},
{"name":"Limetz Villez","zipcode":"78270","county":{"code":"78","name":"Yvelines"},"coords":{"latitude":"49.06","longitude":"1.54"}},
{"name":"Lommoye","zipcode":"78270","county":{"code":"78","name":"Yvelines"},"coords":{"latitude":"49","longitude":"1.51667"}},
{"name":"Longnes","zipcode":"78980","county":{"code":"78","name":"Yvelines"},"coords":{"latitude":"48.9167","longitude":"1.58333"}},
{"name":"Longvilliers","zipcode":"78730","county":{"code":"78","name":"Yvelines"},"coords":{"latitude":"48.5833","longitude":"1.98333"}},
{"name":"Louveciennes","zipcode":"78430","county":{"code":"78","name":"Yvelines"},"coords":{"latitude":"48.8667","longitude":"2.11667"}},
{"name":"M\u00e9dan","zipcode":"78670","county":{"code":"78","name":"Yvelines"},"coords":{"latitude":"48.95","longitude":"2"}},
{"name":"M\u00e9nerville","zipcode":"78200","county":{"code":"78","name":"Yvelines"},"coords":{"latitude":"48.95","longitude":"1.6"}},
{"name":"M\u00e9r\u00e9","zipcode":"78490","county":{"code":"78","name":"Yvelines"},"coords":{"latitude":"48.7833","longitude":"1.81667"}},
{"name":"M\u00e9ricourt","zipcode":"78270","county":{"code":"78","name":"Yvelines"},"coords":{"latitude":"49.0333","longitude":"1.63333"}},
{"name":"M\u00e9zi\u00e8res sur Seine","zipcode":"78970","county":{"code":"78","name":"Yvelines"},"coords":{"latitude":"48.9667","longitude":"1.8"}},
{"name":"M\u00e9zy sur Seine","zipcode":"78250","county":{"code":"78","name":"Yvelines"},"coords":{"latitude":"49","longitude":"1.88"}},
{"name":"Magnanville","zipcode":"78200","county":{"code":"78","name":"Yvelines"},"coords":{"latitude":"48.9667","longitude":"1.68333"}},
{"name":"Magny les Hameaux","zipcode":"78114","county":{"code":"78","name":"Yvelines"},"coords":{"latitude":"48.7333","longitude":"2.06667"}},
{"name":"Maisons Laffitte","zipcode":"78600","county":{"code":"78","name":"Yvelines"},"coords":{"latitude":"48.95","longitude":"2.15"}},
{"name":"Mantes la Jolie","zipcode":"78200","county":{"code":"78","name":"Yvelines"},"coords":{"latitude":"48.9833","longitude":"1.71667"}},
{"name":"Mantes la Ville","zipcode":"78200","county":{"code":"78","name":"Yvelines"},"coords":{"latitude":"48.9667","longitude":"1.71667"}},
{"name":"Marcq","zipcode":"78770","county":{"code":"78","name":"Yvelines"},"coords":{"latitude":"48.8667","longitude":"1.81667"}},
{"name":"Mareil le Guyon","zipcode":"78490","county":{"code":"78","name":"Yvelines"},"coords":{"latitude":"48.7833","longitude":"1.85"}},
{"name":"Mareil Marly","zipcode":"78750","county":{"code":"78","name":"Yvelines"},"coords":{"latitude":"48.8833","longitude":"2.08333"}},
{"name":"Mareil sur Mauldre","zipcode":"78124","county":{"code":"78","name":"Yvelines"},"coords":{"latitude":"48.9","longitude":"1.86667"}},
{"name":"Marly le Roi","zipcode":"78160","county":{"code":"78","name":"Yvelines"},"coords":{"latitude":"48.8667","longitude":"2.08333"}},
{"name":"Maule","zipcode":"78580","county":{"code":"78","name":"Yvelines"},"coords":{"latitude":"48.9167","longitude":"1.85"}},
{"name":"Maulette","zipcode":"78550","county":{"code":"78","name":"Yvelines"},"coords":{"latitude":"48.8","longitude":"1.61667"}},
{"name":"Maurecourt","zipcode":"78780","county":{"code":"78","name":"Yvelines"},"coords":{"latitude":"49","longitude":"2.06667"}},
{"name":"Maurepas","zipcode":"78310","county":{"code":"78","name":"Yvelines"},"coords":{"latitude":"48.7667","longitude":"1.91667"}},
{"name":"Meulan","zipcode":"78250","county":{"code":"78","name":"Yvelines"},"coords":{"latitude":"49.0167","longitude":"1.9"}},
{"name":"Millemont","zipcode":"78940","county":{"code":"78","name":"Yvelines"},"coords":{"latitude":"48.8","longitude":"1.73333"}},
{"name":"Milon la Chapelle","zipcode":"78470","county":{"code":"78","name":"Yvelines"},"coords":{"latitude":"48.7333","longitude":"2.05"}},
{"name":"Mittainville","zipcode":"78125","county":{"code":"78","name":"Yvelines"},"coords":{"latitude":"48.6667","longitude":"1.65"}},
{"name":"Moisson","zipcode":"78840","county":{"code":"78","name":"Yvelines"},"coords":{"latitude":"49.0667","longitude":"1.66667"}},
{"name":"Mondreville","zipcode":"78980","county":{"code":"78","name":"Yvelines"},"coords":{"latitude":"48.9","longitude":"1.55"}},
{"name":"Montainville","zipcode":"78124","county":{"code":"78","name":"Yvelines"},"coords":{"latitude":"48.8833","longitude":"1.86667"}},
{"name":"Montalet le Bois","zipcode":"78440","county":{"code":"78","name":"Yvelines"},"coords":{"latitude":"49.05","longitude":"1.83333"}},
{"name":"Montchauvet","zipcode":"78790","county":{"code":"78","name":"Yvelines"},"coords":{"latitude":"48.9","longitude":"1.63333"}},
{"name":"Montesson","zipcode":"78360","county":{"code":"78","name":"Yvelines"},"coords":{"latitude":"48.9167","longitude":"2.15"}},
{"name":"Montfort l'Amaury","zipcode":"78490","county":{"code":"78","name":"Yvelines"},"coords":{"latitude":"48.7833","longitude":"1.81667"}},
{"name":"Montigny le Bretonneux","zipcode":"78180","county":{"code":"78","name":"Yvelines"},"coords":{"latitude":"48.7667","longitude":"2.03333"}},
{"name":"Morainvilliers","zipcode":"78630","county":{"code":"78","name":"Yvelines"},"coords":{"latitude":"48.9333","longitude":"1.93333"}},
{"name":"Mousseaux sur Seine","zipcode":"78270","county":{"code":"78","name":"Yvelines"},"coords":{"latitude":"49.05","longitude":"1.65"}},
{"name":"Mulcent","zipcode":"78790","county":{"code":"78","name":"Yvelines"},"coords":{"latitude":"48.8833","longitude":"1.65"}},
{"name":"N\u00e9zel","zipcode":"78410","county":{"code":"78","name":"Yvelines"},"coords":{"latitude":"48.95","longitude":"1.83333"}},
{"name":"Neauphle le Ch\u00e2teau","zipcode":"78640","county":{"code":"78","name":"Yvelines"},"coords":{"latitude":"48.8167","longitude":"1.9"}},
{"name":"Neauphle le Vieux","zipcode":"78640","county":{"code":"78","name":"Yvelines"},"coords":{"latitude":"48.8167","longitude":"1.86667"}},
{"name":"Neauphlette","zipcode":"78980","county":{"code":"78","name":"Yvelines"},"coords":{"latitude":"48.9333","longitude":"1.53333"}},
{"name":"Noisy le Roi","zipcode":"78590","county":{"code":"78","name":"Yvelines"},"coords":{"latitude":"48.85","longitude":"2.06667"}},
{"name":"Oinville sur Montcient","zipcode":"78250","county":{"code":"78","name":"Yvelines"},"coords":{"latitude":"49.0333","longitude":"1.85"}},
{"name":"Orcemont","zipcode":"78125","county":{"code":"78","name":"Yvelines"},"coords":{"latitude":"48.5833","longitude":"1.81667"}},
{"name":"Orgerus","zipcode":"78910","county":{"code":"78","name":"Yvelines"},"coords":{"latitude":"48.8333","longitude":"1.7"}},
{"name":"Orgeval","zipcode":"78630","county":{"code":"78","name":"Yvelines"},"coords":{"latitude":"48.9167","longitude":"1.98333"}},
{"name":"Orphin","zipcode":"78125","county":{"code":"78","name":"Yvelines"},"coords":{"latitude":"48.5833","longitude":"1.78333"}},
{"name":"Orsonville","zipcode":"78660","county":{"code":"78","name":"Yvelines"},"coords":{"latitude":"48.47","longitude":"1.83"}},
{"name":"Orvilliers","zipcode":"78910","county":{"code":"78","name":"Yvelines"},"coords":{"latitude":"48.8667","longitude":"1.63333"}},
{"name":"Osmoy","zipcode":"78910","county":{"code":"78","name":"Yvelines"},"coords":{"latitude":"48.8667","longitude":"1.71667"}},
{"name":"Paray Douaville","zipcode":"78660","county":{"code":"78","name":"Yvelines"},"coords":{"latitude":"48.4667","longitude":"1.875"}},
{"name":"Perdreauville","zipcode":"78200","county":{"code":"78","name":"Yvelines"},"coords":{"latitude":"48.9583","longitude":"1.625"}},
{"name":"Plaisir","zipcode":"78370","county":{"code":"78","name":"Yvelines"},"coords":{"latitude":"48.8167","longitude":"1.95"}},
{"name":"Poigny la For\u00eat","zipcode":"78125","county":{"code":"78","name":"Yvelines"},"coords":{"latitude":"48.6833","longitude":"1.75"}},
{"name":"Poissy","zipcode":"78300","county":{"code":"78","name":"Yvelines"},"coords":{"latitude":"48.9333","longitude":"2.05"}},
{"name":"Ponth\u00e9vrard","zipcode":"78730","county":{"code":"78","name":"Yvelines"},"coords":{"latitude":"48.55","longitude":"1.9"}},
{"name":"Porcheville","zipcode":"78440","county":{"code":"78","name":"Yvelines"},"coords":{"latitude":"48.9667","longitude":"1.76667"}},
{"name":"Port Villez","zipcode":"78270","county":{"code":"78","name":"Yvelines"},"coords":{"latitude":"49.05","longitude":"1.53333"}},
{"name":"Prunay en Yvelines","zipcode":"78660","county":{"code":"78","name":"Yvelines"},"coords":{"latitude":"48.52","longitude":"1.79"}},
{"name":"Prunay le Temple","zipcode":"78910","county":{"code":"78","name":"Yvelines"},"coords":{"latitude":"48.8667","longitude":"1.68333"}},
{"name":"Raizeux","zipcode":"78125","county":{"code":"78","name":"Yvelines"},"coords":{"latitude":"48.6167","longitude":"1.68333"}},
{"name":"Rambouillet","zipcode":"78120","county":{"code":"78","name":"Yvelines"},"coords":{"latitude":"48.65","longitude":"1.83333"}},
{"name":"Rennemoulin","zipcode":"78590","county":{"code":"78","name":"Yvelines"},"coords":{"latitude":"48.8333","longitude":"2.05"}},
{"name":"Richebourg","zipcode":"78550","county":{"code":"78","name":"Yvelines"},"coords":{"latitude":"48.825","longitude":"1.64167"}},
{"name":"Rochefort en Yvelines","zipcode":"78730","county":{"code":"78","name":"Yvelines"},"coords":{"latitude":"48.5833","longitude":"1.98333"}},
{"name":"Rocquencourt","zipcode":"78150","county":{"code":"78","name":"Yvelines"},"coords":{"latitude":"48.8333","longitude":"2.11667"}},
{"name":"Rolleboise","zipcode":"78270","county":{"code":"78","name":"Yvelines"},"coords":{"latitude":"49.0167","longitude":"1.61667"}},
{"name":"Rosay","zipcode":"78790","county":{"code":"78","name":"Yvelines"},"coords":{"latitude":"48.9167","longitude":"1.68333"}},
{"name":"Rosny sur Seine","zipcode":"78710","county":{"code":"78","name":"Yvelines"},"coords":{"latitude":"49","longitude":"1.63333"}},
{"name":"Sailly","zipcode":"78440","county":{"code":"78","name":"Yvelines"},"coords":{"latitude":"49.0333","longitude":"1.8"}},
{"name":"Saint Arnoult en Yvelines","zipcode":"78730","county":{"code":"78","name":"Yvelines"},"coords":{"latitude":"48.5667","longitude":"1.93333"}},
{"name":"Saint Cyr l'Ecole","zipcode":"78210","county":{"code":"78","name":"Yvelines"},"coords":{"latitude":"48.8","longitude":"2.06667"}},
{"name":"Sainte Mesme","zipcode":"78730","county":{"code":"78","name":"Yvelines"},"coords":{"latitude":"48.5299","longitude":"1.95604"}},
{"name":"Saint Forget","zipcode":"78720","county":{"code":"78","name":"Yvelines"},"coords":{"latitude":"48.7","longitude":"2"}},
{"name":"Saint Germain de la Grange","zipcode":"78640","county":{"code":"78","name":"Yvelines"},"coords":{"latitude":"48.8333","longitude":"1.9"}},
{"name":"Saint Germain en Laye","zipcode":"78100","county":{"code":"78","name":"Yvelines"},"coords":{"latitude":"48.9","longitude":"2.08333"}},
{"name":"Saint Hilarion","zipcode":"78125","county":{"code":"78","name":"Yvelines"},"coords":{"latitude":"48.6167","longitude":"1.73333"}},
{"name":"Saint Illiers la Ville","zipcode":"78980","county":{"code":"78","name":"Yvelines"},"coords":{"latitude":"48.9833","longitude":"1.55"}},
{"name":"Saint Illiers le Bois","zipcode":"78980","county":{"code":"78","name":"Yvelines"},"coords":{"latitude":"48.9667","longitude":"1.5"}},
{"name":"Saint L\u00e9ger en Yvelines","zipcode":"78610","county":{"code":"78","name":"Yvelines"},"coords":{"latitude":"48.7167","longitude":"1.76667"}},
{"name":"Saint Lambert","zipcode":"78470","county":{"code":"78","name":"Yvelines"},"coords":{"latitude":"48.7333","longitude":"2.01667"}},
{"name":"Saint Martin de Br\u00e9thencourt","zipcode":"78660","county":{"code":"78","name":"Yvelines"},"coords":{"latitude":"48.51","longitude":"1.92"}},
{"name":"Saint Martin des Champs","zipcode":"78790","county":{"code":"78","name":"Yvelines"},"coords":{"latitude":"48.8833","longitude":"1.71667"}},
{"name":"Saint Martin la Garenne","zipcode":"78520","county":{"code":"78","name":"Yvelines"},"coords":{"latitude":"49.0333","longitude":"1.7"}},
{"name":"Saint Nom la Bret\u00e8che","zipcode":"78860","county":{"code":"78","name":"Yvelines"},"coords":{"latitude":"48.85","longitude":"2.01667"}},
{"name":"Saint R\u00e9my l\u00e8s Chevreuse","zipcode":"78470","county":{"code":"78","name":"Yvelines"},"coords":{"latitude":"48.7","longitude":"2.08333"}},
{"name":"Saint R\u00e9my l'Honor\u00e9","zipcode":"78690","county":{"code":"78","name":"Yvelines"},"coords":{"latitude":"48.75","longitude":"1.88333"}},
{"name":"Sartrouville","zipcode":"78500","county":{"code":"78","name":"Yvelines"},"coords":{"latitude":"48.95","longitude":"2.18333"}},
{"name":"Saulx Marchais","zipcode":"78650","county":{"code":"78","name":"Yvelines"},"coords":{"latitude":"48.8333","longitude":"1.83333"}},
{"name":"Senlisse","zipcode":"78720","county":{"code":"78","name":"Yvelines"},"coords":{"latitude":"48.6833","longitude":"1.98333"}},
{"name":"Septeuil","zipcode":"78790","county":{"code":"78","name":"Yvelines"},"coords":{"latitude":"48.9","longitude":"1.68333"}},
{"name":"Soindres","zipcode":"78200","county":{"code":"78","name":"Yvelines"},"coords":{"latitude":"48.95","longitude":"1.66667"}},
{"name":"Sonchamp","zipcode":"78120","county":{"code":"78","name":"Yvelines"},"coords":{"latitude":"48.5833","longitude":"1.88333"}},
{"name":"Tacoigni\u00e8res","zipcode":"78910","county":{"code":"78","name":"Yvelines"},"coords":{"latitude":"48.8333","longitude":"1.68333"}},
{"name":"Tessancourt sur Aubette","zipcode":"78250","county":{"code":"78","name":"Yvelines"},"coords":{"latitude":"49.0167","longitude":"1.91667"}},
{"name":"Thiverval Grignon","zipcode":"78850","county":{"code":"78","name":"Yvelines"},"coords":{"latitude":"48.85","longitude":"1.91667"}},
{"name":"Thoiry","zipcode":"78770","county":{"code":"78","name":"Yvelines"},"coords":{"latitude":"48.8667","longitude":"1.8"}},
{"name":"Tilly","zipcode":"78790","county":{"code":"78","name":"Yvelines"},"coords":{"latitude":"48.8833","longitude":"1.575"}},
{"name":"Toussus le Noble","zipcode":"78117","county":{"code":"78","name":"Yvelines"},"coords":{"latitude":"48.75","longitude":"2.11667"}},
{"name":"Trappes","zipcode":"78190","county":{"code":"78","name":"Yvelines"},"coords":{"latitude":"48.7833","longitude":"2"}},
{"name":"Triel sur Seine","zipcode":"78510","county":{"code":"78","name":"Yvelines"},"coords":{"latitude":"48.9833","longitude":"2"}},
{"name":"V\u00e9lizy Villacoublay","zipcode":"78140","county":{"code":"78","name":"Yvelines"},"coords":{"latitude":"48.8","longitude":"2.18333"}},
{"name":"Vaux sur Seine","zipcode":"78740","county":{"code":"78","name":"Yvelines"},"coords":{"latitude":"49.0167","longitude":"1.96667"}},
{"name":"Verneuil sur Seine","zipcode":"78480","county":{"code":"78","name":"Yvelines"},"coords":{"latitude":"48.9833","longitude":"1.98333"}},
{"name":"Vernouillet","zipcode":"78540","county":{"code":"78","name":"Yvelines"},"coords":{"latitude":"48.9667","longitude":"1.98333"}},
{"name":"Versailles","zipcode":"78000","county":{"code":"78","name":"Yvelines"},"coords":{"latitude":"48.8","longitude":"2.13333"}},
{"name":"Vert","zipcode":"78930","county":{"code":"78","name":"Yvelines"},"coords":{"latitude":"48.9333","longitude":"1.7"}},
{"name":"Vicq","zipcode":"78490","county":{"code":"78","name":"Yvelines"},"coords":{"latitude":"48.8167","longitude":"1.83333"}},
{"name":"Vieille Eglise en Yvelines","zipcode":"78125","county":{"code":"78","name":"Yvelines"},"coords":{"latitude":"48.67","longitude":"1.87"}},
{"name":"Villennes sur Seine","zipcode":"78670","county":{"code":"78","name":"Yvelines"},"coords":{"latitude":"48.95","longitude":"2"}},
{"name":"Villepreux","zipcode":"78450","county":{"code":"78","name":"Yvelines"},"coords":{"latitude":"48.8333","longitude":"2.01667"}},
{"name":"Villette","zipcode":"78930","county":{"code":"78","name":"Yvelines"},"coords":{"latitude":"48.9333","longitude":"1.7"}},
{"name":"Villiers le Mahieu","zipcode":"78770","county":{"code":"78","name":"Yvelines"},"coords":{"latitude":"48.8667","longitude":"1.78333"}},
{"name":"Villiers Saint Fr\u00e9deric","zipcode":"78640","county":{"code":"78","name":"Yvelines"},"coords":{"latitude":"48.8167","longitude":"1.88333"}},
{"name":"Viroflay","zipcode":"78220","county":{"code":"78","name":"Yvelines"},"coords":{"latitude":"48.8","longitude":"2.16667"}},
{"name":"Voisins le Bretonneux","zipcode":"78960","county":{"code":"78","name":"Yvelines"},"coords":{"latitude":"48.75","longitude":"2.05"}},
{"name":"Abb\u00e9ville la Rivi\u00e8re","zipcode":"91150","county":{"code":"91","name":"Essonne"},"coords":{"latitude":"48.35","longitude":"2.16667"}},
{"name":"Angerville","zipcode":"91670","county":{"code":"91","name":"Essonne"},"coords":{"latitude":"48.3167","longitude":"2"}},
{"name":"Angervilliers","zipcode":"91470","county":{"code":"91","name":"Essonne"},"coords":{"latitude":"48.5833","longitude":"2.06667"}},
{"name":"Arpajon","zipcode":"91290","county":{"code":"91","name":"Essonne"},"coords":{"latitude":"48.5833","longitude":"2.25"}},
{"name":"Arrancourt","zipcode":"91690","county":{"code":"91","name":"Essonne"},"coords":{"latitude":"48.3333","longitude":"2.16667"}},
{"name":"Athis Mons","zipcode":"91200","county":{"code":"91","name":"Essonne"},"coords":{"latitude":"48.7167","longitude":"2.4"}},
{"name":"Authon la Plaine","zipcode":"91410","county":{"code":"91","name":"Essonne"},"coords":{"latitude":"48.45","longitude":"1.95"}},
{"name":"Auvernaux","zipcode":"91830","county":{"code":"91","name":"Essonne"},"coords":{"latitude":"48.5333","longitude":"2.48333"}},
{"name":"Auvers Saint Georges","zipcode":"91580","county":{"code":"91","name":"Essonne"},"coords":{"latitude":"48.4833","longitude":"2.23333"}},
{"name":"Avrainville","zipcode":"91630","county":{"code":"91","name":"Essonne"},"coords":{"latitude":"48.5667","longitude":"2.25"}},
{"name":"Ballainvilliers","zipcode":"91160","county":{"code":"91","name":"Essonne"},"coords":{"latitude":"48.6667","longitude":"2.28333"}},
{"name":"Ballancourt sur Essonne","zipcode":"91610","county":{"code":"91","name":"Essonne"},"coords":{"latitude":"0","longitude":"0"}},
{"name":"Baulne","zipcode":"91590","county":{"code":"91","name":"Essonne"},"coords":{"latitude":"48.5","longitude":"2.35"}},
{"name":"Bi\u00e8vres","zipcode":"91570","county":{"code":"91","name":"Essonne"},"coords":{"latitude":"48.75","longitude":"2.21667"}},
{"name":"Blandy","zipcode":"91150","county":{"code":"91","name":"Essonne"},"coords":{"latitude":"48.3167","longitude":"2.25833"}},
{"name":"Boigneville","zipcode":"91720","county":{"code":"91","name":"Essonne"},"coords":{"latitude":"48.3333","longitude":"2.36667"}},
{"name":"Bois Herpin","zipcode":"91150","county":{"code":"91","name":"Essonne"},"coords":{"latitude":"48.3667","longitude":"2.23333"}},
{"name":"Boissy la Rivi\u00e8re","zipcode":"91690","county":{"code":"91","name":"Essonne"},"coords":{"latitude":"48.3667","longitude":"2.15"}},
{"name":"Boissy le Cutt\u00e9","zipcode":"91590","county":{"code":"91","name":"Essonne"},"coords":{"latitude":"48.4667","longitude":"2.28333"}},
{"name":"Boissy le Sec","zipcode":"91870","county":{"code":"91","name":"Essonne"},"coords":{"latitude":"48.4667","longitude":"2.08333"}},
{"name":"Boissy sous Saint Yon","zipcode":"91790","county":{"code":"91","name":"Essonne"},"coords":{"latitude":"48.55","longitude":"2.21667"}},
{"name":"Bondoufle","zipcode":"91070","county":{"code":"91","name":"Essonne"},"coords":{"latitude":"48.6167","longitude":"2.38333"}},
{"name":"Boullay les Troux","zipcode":"91470","county":{"code":"91","name":"Essonne"},"coords":{"latitude":"48.6833","longitude":"2.05"}},
{"name":"Bouray sur Juine","zipcode":"91850","county":{"code":"91","name":"Essonne"},"coords":{"latitude":"48.5167","longitude":"2.3"}},
{"name":"Boussy Saint Antoine","zipcode":"91800","county":{"code":"91","name":"Essonne"},"coords":{"latitude":"48.6833","longitude":"2.53333"}},
{"name":"Boutervilliers","zipcode":"91150","county":{"code":"91","name":"Essonne"},"coords":{"latitude":"48.45","longitude":"2.05"}},
{"name":"Boutigny sur Essonne","zipcode":"91820","county":{"code":"91","name":"Essonne"},"coords":{"latitude":"0","longitude":"0"}},
{"name":"Bouville","zipcode":"91880","county":{"code":"91","name":"Essonne"},"coords":{"latitude":"48.4333","longitude":"2.3"}},
{"name":"Br\u00e9tigny sur Orge","zipcode":"91220","county":{"code":"91","name":"Essonne"},"coords":{"latitude":"48.6167","longitude":"2.31667"}},
{"name":"Breuillet","zipcode":"91650","county":{"code":"91","name":"Essonne"},"coords":{"latitude":"48.5667","longitude":"2.16667"}},
{"name":"Breux Jouy","zipcode":"91650","county":{"code":"91","name":"Essonne"},"coords":{"latitude":"0","longitude":"0"}},
{"name":"Bri\u00e8res les Scell\u00e9s","zipcode":"91150","county":{"code":"91","name":"Essonne"},"coords":{"latitude":"48.45","longitude":"2.13333"}},
{"name":"Briis sous Forges","zipcode":"91640","county":{"code":"91","name":"Essonne"},"coords":{"latitude":"48.6167","longitude":"2.11667"}},
{"name":"Brouy","zipcode":"91150","county":{"code":"91","name":"Essonne"},"coords":{"latitude":"48.3167","longitude":"2.26667"}},
{"name":"Brunoy","zipcode":"91800","county":{"code":"91","name":"Essonne"},"coords":{"latitude":"48.7","longitude":"2.5"}},
{"name":"Bruy\u00e8res le Ch\u00e2tel","zipcode":"91680","county":{"code":"91","name":"Essonne"},"coords":{"latitude":"48.6","longitude":"2.2"}},
{"name":"Buno Bonnevaux","zipcode":"91720","county":{"code":"91","name":"Essonne"},"coords":{"latitude":"48.35","longitude":"2.38333"}},
{"name":"Bures sur Yvette","zipcode":"91440","county":{"code":"91","name":"Essonne"},"coords":{"latitude":"48.7","longitude":"2.16667"}},
{"name":"Cerny","zipcode":"91590","county":{"code":"91","name":"Essonne"},"coords":{"latitude":"48.4667","longitude":"2.31667"}},
{"name":"Chalo Saint Mars","zipcode":"91780","county":{"code":"91","name":"Essonne"},"coords":{"latitude":"48.4333","longitude":"2.06667"}},
{"name":"Chalou Moulineux","zipcode":"91740","county":{"code":"91","name":"Essonne"},"coords":{"latitude":"48.3833","longitude":"2.01667"}},
{"name":"Chamarande","zipcode":"91730","county":{"code":"91","name":"Essonne"},"coords":{"latitude":"48.5167","longitude":"2.21667"}},
{"name":"Champcueil","zipcode":"91750","county":{"code":"91","name":"Essonne"},"coords":{"latitude":"48.5167","longitude":"2.45"}},
{"name":"Champlan","zipcode":"91160","county":{"code":"91","name":"Essonne"},"coords":{"latitude":"48.7","longitude":"2.26667"}},
{"name":"Champmotteux","zipcode":"91150","county":{"code":"91","name":"Essonne"},"coords":{"latitude":"48.35","longitude":"2.31667"}},
{"name":"Chatignonville","zipcode":"91410","county":{"code":"91","name":"Essonne"},"coords":{"latitude":"48.4667","longitude":"1.93333"}},
{"name":"Chauffour l\u00e8s Etr\u00e9chy","zipcode":"91580","county":{"code":"91","name":"Essonne"},"coords":{"latitude":"48.5","longitude":"2.16667"}},
{"name":"Cheptainville","zipcode":"91630","county":{"code":"91","name":"Essonne"},"coords":{"latitude":"48.55","longitude":"2.26667"}},
{"name":"Chevannes","zipcode":"91750","county":{"code":"91","name":"Essonne"},"coords":{"latitude":"48.5333","longitude":"2.43333"}},
{"name":"Chilly Mazarin","zipcode":"91380","county":{"code":"91","name":"Essonne"},"coords":{"latitude":"48.7","longitude":"2.3"}},
{"name":"Congerville Thionville","zipcode":"91740","county":{"code":"91","name":"Essonne"},"coords":{"latitude":"0","longitude":"0"}},
{"name":"Corbeil Essonnes","zipcode":"91100","county":{"code":"91","name":"Essonne"},"coords":{"latitude":"48.6","longitude":"2.48333"}},
{"name":"Corbreuse","zipcode":"91410","county":{"code":"91","name":"Essonne"},"coords":{"latitude":"48.5","longitude":"1.95"}},
{"name":"Courances","zipcode":"91490","county":{"code":"91","name":"Essonne"},"coords":{"latitude":"48.4333","longitude":"2.46667"}},
{"name":"Courcouronnes","zipcode":"91080","county":{"code":"91","name":"Essonne"},"coords":{"latitude":"48.6167","longitude":"2.4"}},
{"name":"Courdimanche sur Essonne","zipcode":"91720","county":{"code":"91","name":"Essonne"},"coords":{"latitude":"0","longitude":"0"}},
{"name":"Courson Monteloup","zipcode":"91680","county":{"code":"91","name":"Essonne"},"coords":{"latitude":"48.6","longitude":"2.15"}},
{"name":"Crosne","zipcode":"91560","county":{"code":"91","name":"Essonne"},"coords":{"latitude":"48.7167","longitude":"2.45"}},
{"name":"Dannemois","zipcode":"91490","county":{"code":"91","name":"Essonne"},"coords":{"latitude":"48.45","longitude":"2.46667"}},
{"name":"D'Huison Longueville","zipcode":"91590","county":{"code":"91","name":"Essonne"},"coords":{"latitude":"48.45","longitude":"2.33333"}},
{"name":"Dourdan","zipcode":"91410","county":{"code":"91","name":"Essonne"},"coords":{"latitude":"48.5333","longitude":"2.01667"}},
{"name":"Draveil","zipcode":"91210","county":{"code":"91","name":"Essonne"},"coords":{"latitude":"48.6833","longitude":"2.41667"}},
{"name":"Echarcon","zipcode":"91540","county":{"code":"91","name":"Essonne"},"coords":{"latitude":"48.5667","longitude":"2.4"}},
{"name":"Egly","zipcode":"91520","county":{"code":"91","name":"Essonne"},"coords":{"latitude":"48.5833","longitude":"2.21667"}},
{"name":"Epinay sous S\u00e9nart","zipcode":"91860","county":{"code":"91","name":"Essonne"},"coords":{"latitude":"48.6833","longitude":"2.51667"}},
{"name":"Epinay sur Orge","zipcode":"91360","county":{"code":"91","name":"Essonne"},"coords":{"latitude":"48.6667","longitude":"2.33333"}},
{"name":"Estouches","zipcode":"91660","county":{"code":"91","name":"Essonne"},"coords":{"latitude":"48.3","longitude":"2.13333"}},
{"name":"Etampes","zipcode":"91150","county":{"code":"91","name":"Essonne"},"coords":{"latitude":"48.4333","longitude":"2.15"}},
{"name":"Etiolles","zipcode":"91450","county":{"code":"91","name":"Essonne"},"coords":{"latitude":"48.6333","longitude":"2.46667"}},
{"name":"Etr\u00e9chy","zipcode":"91580","county":{"code":"91","name":"Essonne"},"coords":{"latitude":"48.5","longitude":"2.2"}},
{"name":"Evry","zipcode":"91000","county":{"code":"91","name":"Essonne"},"coords":{"latitude":"48.6333","longitude":"2.45"}},
{"name":"Fleury M\u00e9rogis","zipcode":"91700","county":{"code":"91","name":"Essonne"},"coords":{"latitude":"48.6333","longitude":"2.36667"}},
{"name":"Fontaine la Rivi\u00e8re","zipcode":"91690","county":{"code":"91","name":"Essonne"},"coords":{"latitude":"48.35","longitude":"2.15"}},
{"name":"Fontenay l\u00e8s Briis","zipcode":"91640","county":{"code":"91","name":"Essonne"},"coords":{"latitude":"48.6167","longitude":"2.15"}},
{"name":"Fontenay le Vicomte","zipcode":"91540","county":{"code":"91","name":"Essonne"},"coords":{"latitude":"48.55","longitude":"2.4"}},
{"name":"Forges les Bains","zipcode":"91470","county":{"code":"91","name":"Essonne"},"coords":{"latitude":"48.6167","longitude":"2.1"}},
{"name":"Gif sur Yvette","zipcode":"91190","county":{"code":"91","name":"Essonne"},"coords":{"latitude":"48.6833","longitude":"2.13333"}},
{"name":"Gironville sur Essonne","zipcode":"91720","county":{"code":"91","name":"Essonne"},"coords":{"latitude":"0","longitude":"0"}},
{"name":"Gometz la Ville","zipcode":"91400","county":{"code":"91","name":"Essonne"},"coords":{"latitude":"48.6667","longitude":"2.11667"}},
{"name":"Gometz le Ch\u00e2tel","zipcode":"91940","county":{"code":"91","name":"Essonne"},"coords":{"latitude":"48.6833","longitude":"2.13333"}},
{"name":"Grigny","zipcode":"91350","county":{"code":"91","name":"Essonne"},"coords":{"latitude":"48.65","longitude":"2.38333"}},
{"name":"Guibeville","zipcode":"91630","county":{"code":"91","name":"Essonne"},"coords":{"latitude":"48.5667","longitude":"2.26667"}},
{"name":"Guigneville sur Essonne","zipcode":"91590","county":{"code":"91","name":"Essonne"},"coords":{"latitude":"0","longitude":"0"}},
{"name":"Guillerval","zipcode":"91690","county":{"code":"91","name":"Essonne"},"coords":{"latitude":"48.3667","longitude":"2.1"}},
{"name":"Igny","zipcode":"91430","county":{"code":"91","name":"Essonne"},"coords":{"latitude":"48.7333","longitude":"2.21667"}},
{"name":"Itteville","zipcode":"91760","county":{"code":"91","name":"Essonne"},"coords":{"latitude":"48.5167","longitude":"2.33333"}},
{"name":"Janville sur Juine","zipcode":"91510","county":{"code":"91","name":"Essonne"},"coords":{"latitude":"48.5167","longitude":"2.26667"}},
{"name":"Janvry","zipcode":"91640","county":{"code":"91","name":"Essonne"},"coords":{"latitude":"48.65","longitude":"2.15"}},
{"name":"Juvisy sur Orge","zipcode":"91260","county":{"code":"91","name":"Essonne"},"coords":{"latitude":"48.6833","longitude":"2.38333"}},
{"name":"La Fert\u00e9 Alais","zipcode":"91590","county":{"code":"91","name":"Essonne"},"coords":{"latitude":"48.4833","longitude":"2.35"}},
{"name":"La For\u00eat le Roi","zipcode":"91410","county":{"code":"91","name":"Essonne"},"coords":{"latitude":"48.4833","longitude":"2.03333"}},
{"name":"La For\u00eat Sainte Croix","zipcode":"91150","county":{"code":"91","name":"Essonne"},"coords":{"latitude":"48.3833","longitude":"2.23333"}},
{"name":"La Norville","zipcode":"91290","county":{"code":"91","name":"Essonne"},"coords":{"latitude":"48.5833","longitude":"2.26667"}},
{"name":"La Ville du Bois","zipcode":"91620","county":{"code":"91","name":"Essonne"},"coords":{"latitude":"48.65","longitude":"2.26667"}},
{"name":"Lardy","zipcode":"91510","county":{"code":"91","name":"Essonne"},"coords":{"latitude":"48.5167","longitude":"2.26667"}},
{"name":"Le Coudray Montceaux","zipcode":"91830","county":{"code":"91","name":"Essonne"},"coords":{"latitude":"48.5667","longitude":"2.5"}},
{"name":"Le Plessis P\u00e2t\u00e9","zipcode":"91220","county":{"code":"91","name":"Essonne"},"coords":{"latitude":"48.6167","longitude":"2.31667"}},
{"name":"Le Val Saint Germain","zipcode":"91530","county":{"code":"91","name":"Essonne"},"coords":{"latitude":"48.5667","longitude":"2.06667"}},
{"name":"Les Granges le Roi","zipcode":"91410","county":{"code":"91","name":"Essonne"},"coords":{"latitude":"48.5","longitude":"2.01667"}},
{"name":"Les Moli\u00e8res","zipcode":"91470","county":{"code":"91","name":"Essonne"},"coords":{"latitude":"48.6667","longitude":"2.06667"}},
{"name":"Les Ulis","zipcode":"91940","county":{"code":"91","name":"Essonne"},"coords":{"latitude":"48.6821","longitude":"2.1698"}},
{"name":"Leudeville","zipcode":"91630","county":{"code":"91","name":"Essonne"},"coords":{"latitude":"48.5667","longitude":"2.31667"}},
{"name":"Leuville sur Orge","zipcode":"91310","county":{"code":"91","name":"Essonne"},"coords":{"latitude":"48.6167","longitude":"2.25"}},
{"name":"Limours en Hurepoix","zipcode":"91470","county":{"code":"91","name":"Essonne"},"coords":{"latitude":"48.65","longitude":"2.08333"}},
{"name":"Linas","zipcode":"91310","county":{"code":"91","name":"Essonne"},"coords":{"latitude":"48.6333","longitude":"2.26667"}},
{"name":"Lisses","zipcode":"91090","county":{"code":"91","name":"Essonne"},"coords":{"latitude":"48.6","longitude":"2.41667"}},
{"name":"Longjumeau","zipcode":"91160","county":{"code":"91","name":"Essonne"},"coords":{"latitude":"48.7","longitude":"2.3"}},
{"name":"Longpont sur Orge","zipcode":"91310","county":{"code":"91","name":"Essonne"},"coords":{"latitude":"48.6333","longitude":"2.28333"}},
{"name":"M\u00e9r\u00e9ville","zipcode":"91660","county":{"code":"91","name":"Essonne"},"coords":{"latitude":"48.3167","longitude":"2.08333"}},
{"name":"M\u00e9robert","zipcode":"91780","county":{"code":"91","name":"Essonne"},"coords":{"latitude":"48.4167","longitude":"2"}},
{"name":"Maisse","zipcode":"91720","county":{"code":"91","name":"Essonne"},"coords":{"latitude":"48.4","longitude":"2.38333"}},
{"name":"Marcoussis","zipcode":"91460","county":{"code":"91","name":"Essonne"},"coords":{"latitude":"48.6333","longitude":"2.23333"}},
{"name":"Marolles en Beauce","zipcode":"91150","county":{"code":"91","name":"Essonne"},"coords":{"latitude":"48.3667","longitude":"2.2"}},
{"name":"Marolles en Hurepoix","zipcode":"91630","county":{"code":"91","name":"Essonne"},"coords":{"latitude":"48.5667","longitude":"2.3"}},
{"name":"Massy","zipcode":"91300","county":{"code":"91","name":"Essonne"},"coords":{"latitude":"48.7333","longitude":"2.28333"}},
{"name":"Mauchamps","zipcode":"91730","county":{"code":"91","name":"Essonne"},"coords":{"latitude":"48.5333","longitude":"2.18333"}},
{"name":"Mennecy","zipcode":"91540","county":{"code":"91","name":"Essonne"},"coords":{"latitude":"48.5667","longitude":"2.43333"}},
{"name":"Mespuits","zipcode":"91150","county":{"code":"91","name":"Essonne"},"coords":{"latitude":"48.35","longitude":"2.26667"}},
{"name":"Milly la For\u00eat","zipcode":"91490","county":{"code":"91","name":"Essonne"},"coords":{"latitude":"48.4","longitude":"2.46667"}},
{"name":"Moigny sur Ecole","zipcode":"91490","county":{"code":"91","name":"Essonne"},"coords":{"latitude":"0","longitude":"0"}},
{"name":"Mondeville","zipcode":"91590","county":{"code":"91","name":"Essonne"},"coords":{"latitude":"48.4833","longitude":"2.41667"}},
{"name":"Monnerville","zipcode":"91930","county":{"code":"91","name":"Essonne"},"coords":{"latitude":"48.35","longitude":"2.05"}},
{"name":"Montgeron","zipcode":"91230","county":{"code":"91","name":"Essonne"},"coords":{"latitude":"48.7","longitude":"2.45"}},
{"name":"Montlh\u00e9ry","zipcode":"91310","county":{"code":"91","name":"Essonne"},"coords":{"latitude":"48.6333","longitude":"2.26667"}},
{"name":"Morangis","zipcode":"91420","county":{"code":"91","name":"Essonne"},"coords":{"latitude":"48.7","longitude":"2.33333"}},
{"name":"Morigny Champigny","zipcode":"91150","county":{"code":"91","name":"Essonne"},"coords":{"latitude":"48.45","longitude":"2.2"}},
{"name":"Morsang sur Orge","zipcode":"91390","county":{"code":"91","name":"Essonne"},"coords":{"latitude":"48.6667","longitude":"2.35"}},
{"name":"Morsang sur Seine","zipcode":"91250","county":{"code":"91","name":"Essonne"},"coords":{"latitude":"48.5667","longitude":"2.5"}},
{"name":"Nainville les Roches","zipcode":"91750","county":{"code":"91","name":"Essonne"},"coords":{"latitude":"48.5","longitude":"2.5"}},
{"name":"Nozay","zipcode":"91620","county":{"code":"91","name":"Essonne"},"coords":{"latitude":"48.65","longitude":"2.23333"}},
{"name":"Ollainville","zipcode":"91290","county":{"code":"91","name":"Essonne"},"coords":{"latitude":"48.5833","longitude":"2.21667"}},
{"name":"Oncy sur Ecole","zipcode":"91490","county":{"code":"91","name":"Essonne"},"coords":{"latitude":"0","longitude":"0"}},
{"name":"Ormoy","zipcode":"91540","county":{"code":"91","name":"Essonne"},"coords":{"latitude":"48.5667","longitude":"2.43333"}},
{"name":"Ormoy la Rivi\u00e8re","zipcode":"91150","county":{"code":"91","name":"Essonne"},"coords":{"latitude":"48.4","longitude":"2.15"}},
{"name":"Orsay","zipcode":"91400","county":{"code":"91","name":"Essonne"},"coords":{"latitude":"48.7","longitude":"2.18333"}},
{"name":"Orveau","zipcode":"91590","county":{"code":"91","name":"Essonne"},"coords":{"latitude":"48.45","longitude":"2.28333"}},
{"name":"Palaiseau","zipcode":"91120","county":{"code":"91","name":"Essonne"},"coords":{"latitude":"48.7167","longitude":"2.25"}},
{"name":"Paray Vieille Poste","zipcode":"91550","county":{"code":"91","name":"Essonne"},"coords":{"latitude":"48.7167","longitude":"2.36667"}},
{"name":"Pecqueuse","zipcode":"91470","county":{"code":"91","name":"Essonne"},"coords":{"latitude":"48.65","longitude":"2.05"}},
{"name":"Plessis Saint Benoist","zipcode":"91410","county":{"code":"91","name":"Essonne"},"coords":{"latitude":"48.4333","longitude":"2"}},
{"name":"Prunay sur Essonne","zipcode":"91720","county":{"code":"91","name":"Essonne"},"coords":{"latitude":"0","longitude":"0"}},
{"name":"Puiselet le Marais","zipcode":"91150","county":{"code":"91","name":"Essonne"},"coords":{"latitude":"48.4","longitude":"2.26667"}},
{"name":"Pussay","zipcode":"91740","county":{"code":"91","name":"Essonne"},"coords":{"latitude":"48.35","longitude":"2"}},
{"name":"Quincy sous S\u00e9nart","zipcode":"91480","county":{"code":"91","name":"Essonne"},"coords":{"latitude":"48.6667","longitude":"2.53333"}},
{"name":"Richarville","zipcode":"91410","county":{"code":"91","name":"Essonne"},"coords":{"latitude":"48.4667","longitude":"2"}},
{"name":"Ris Orangis","zipcode":"91130","county":{"code":"91","name":"Essonne"},"coords":{"latitude":"48.65","longitude":"2.41667"}},
{"name":"Roinville sous Dourdan","zipcode":"91410","county":{"code":"91","name":"Essonne"},"coords":{"latitude":"48.5333","longitude":"2.03333"}},
{"name":"Roinvilliers","zipcode":"91150","county":{"code":"91","name":"Essonne"},"coords":{"latitude":"48.35","longitude":"2.23333"}},
{"name":"Saclas","zipcode":"91690","county":{"code":"91","name":"Essonne"},"coords":{"latitude":"48.3667","longitude":"2.11667"}},
{"name":"Saclay","zipcode":"91400","county":{"code":"91","name":"Essonne"},"coords":{"latitude":"48.7333","longitude":"2.16667"}},
{"name":"Saint Aubin","zipcode":"91190","county":{"code":"91","name":"Essonne"},"coords":{"latitude":"48.7167","longitude":"2.13333"}},
{"name":"Saint Ch\u00e9ron","zipcode":"91530","county":{"code":"91","name":"Essonne"},"coords":{"latitude":"48.55","longitude":"2.11667"}},
{"name":"Saint Cyr la Rivi\u00e8re","zipcode":"91690","county":{"code":"91","name":"Essonne"},"coords":{"latitude":"48.35","longitude":"2.13333"}},
{"name":"Saint Cyr sous Dourdan","zipcode":"91410","county":{"code":"91","name":"Essonne"},"coords":{"latitude":"48.5667","longitude":"2.03333"}},
{"name":"Sainte Genevi\u00e8ve des Bois","zipcode":"91700","county":{"code":"91","name":"Essonne"},"coords":{"latitude":"48.6333","longitude":"2.33333"}},
{"name":"Saint Escobille","zipcode":"91410","county":{"code":"91","name":"Essonne"},"coords":{"latitude":"48.4333","longitude":"1.96667"}},
{"name":"Saint Germain l\u00e8s Arpajon","zipcode":"91180","county":{"code":"91","name":"Essonne"},"coords":{"latitude":"48.6","longitude":"2.25"}},
{"name":"Saint Germain l\u00e8s Corbeil","zipcode":"91250","county":{"code":"91","name":"Essonne"},"coords":{"latitude":"48.6167","longitude":"2.48333"}},
{"name":"Saint Hilaire","zipcode":"91780","county":{"code":"91","name":"Essonne"},"coords":{"latitude":"48.4333","longitude":"2.06667"}},
{"name":"Saint Jean de Beauregard","zipcode":"91940","county":{"code":"91","name":"Essonne"},"coords":{"latitude":"48.6667","longitude":"2.16667"}},
{"name":"Saint Maurice Montcouronne","zipcode":"91530","county":{"code":"91","name":"Essonne"},"coords":{"latitude":"48.5833","longitude":"2.11667"}},
{"name":"Saint Michel sur Orge","zipcode":"91240","county":{"code":"91","name":"Essonne"},"coords":{"latitude":"48.6333","longitude":"2.3"}},
{"name":"Saint Pierre du Perray","zipcode":"91280","county":{"code":"91","name":"Essonne"},"coords":{"latitude":"48.6167","longitude":"2.5"}},
{"name":"Saintry sur Seine","zipcode":"91250","county":{"code":"91","name":"Essonne"},"coords":{"latitude":"48.6","longitude":"2.5"}},
{"name":"Saint Sulpice de Favi\u00e8res","zipcode":"91910","county":{"code":"91","name":"Essonne"},"coords":{"latitude":"48.5333","longitude":"2.18333"}},
{"name":"Saint Vrain","zipcode":"91770","county":{"code":"91","name":"Essonne"},"coords":{"latitude":"48.5333","longitude":"2.33333"}},
{"name":"Saint Yon","zipcode":"91650","county":{"code":"91","name":"Essonne"},"coords":{"latitude":"48.5667","longitude":"2.18333"}},
{"name":"Saulx les Chartreux","zipcode":"91160","county":{"code":"91","name":"Essonne"},"coords":{"latitude":"48.6833","longitude":"2.26667"}},
{"name":"Savigny sur Orge","zipcode":"91600","county":{"code":"91","name":"Essonne"},"coords":{"latitude":"48.6667","longitude":"2.35"}},
{"name":"Sermaise","zipcode":"91530","county":{"code":"91","name":"Essonne"},"coords":{"latitude":"48.5333","longitude":"2.08333"}},
{"name":"Soisy sur Ecole","zipcode":"91840","county":{"code":"91","name":"Essonne"},"coords":{"latitude":"48.4667","longitude":"2.48333"}},
{"name":"Soisy sur Seine","zipcode":"91450","county":{"code":"91","name":"Essonne"},"coords":{"latitude":"48.65","longitude":"2.45"}},
{"name":"Souzy la Briche","zipcode":"91580","county":{"code":"91","name":"Essonne"},"coords":{"latitude":"48.5333","longitude":"2.15"}},
{"name":"Tigery","zipcode":"91250","county":{"code":"91","name":"Essonne"},"coords":{"latitude":"48.6333","longitude":"2.5"}},
{"name":"Torfou","zipcode":"91730","county":{"code":"91","name":"Essonne"},"coords":{"latitude":"48.5333","longitude":"2.23333"}},
{"name":"Valpuiseaux","zipcode":"91720","county":{"code":"91","name":"Essonne"},"coords":{"latitude":"48.3833","longitude":"2.31667"}},
{"name":"Varennes Jarcy","zipcode":"91480","county":{"code":"91","name":"Essonne"},"coords":{"latitude":"0","longitude":"0"}},
{"name":"Vaugrigneuse","zipcode":"91640","county":{"code":"91","name":"Essonne"},"coords":{"latitude":"48.6","longitude":"2.11667"}},
{"name":"Vauhallan","zipcode":"91430","county":{"code":"91","name":"Essonne"},"coords":{"latitude":"48.7333","longitude":"2.2"}},
{"name":"Vayres sur Essonne","zipcode":"91820","county":{"code":"91","name":"Essonne"},"coords":{"latitude":"0","longitude":"0"}},
{"name":"Verri\u00e8res le Buisson","zipcode":"91370","county":{"code":"91","name":"Essonne"},"coords":{"latitude":"48.75","longitude":"2.26667"}},
{"name":"Vert le Grand","zipcode":"91810","county":{"code":"91","name":"Essonne"},"coords":{"latitude":"48.5667","longitude":"2.36667"}},
{"name":"Vert le Petit","zipcode":"91710","county":{"code":"91","name":"Essonne"},"coords":{"latitude":"48.55","longitude":"2.36667"}},
{"name":"Videlles","zipcode":"91890","county":{"code":"91","name":"Essonne"},"coords":{"latitude":"48.4667","longitude":"2.43333"}},
{"name":"Vigneux sur Seine","zipcode":"91270","county":{"code":"91","name":"Essonne"},"coords":{"latitude":"48.7","longitude":"2.41667"}},
{"name":"Villab\u00e9","zipcode":"91100","county":{"code":"91","name":"Essonne"},"coords":{"latitude":"48.5833","longitude":"2.45"}},
{"name":"Villebon sur Yvette","zipcode":"91140","county":{"code":"91","name":"Essonne"},"coords":{"latitude":"48.7","longitude":"2.25"}},
{"name":"Villeconin","zipcode":"91580","county":{"code":"91","name":"Essonne"},"coords":{"latitude":"48.5167","longitude":"2.11667"}},
{"name":"Villejust","zipcode":"91140","county":{"code":"91","name":"Essonne"},"coords":{"latitude":"48.6833","longitude":"2.23333"}},
{"name":"Villemoisson sur Orge","zipcode":"91360","county":{"code":"91","name":"Essonne"},"coords":{"latitude":"48.6667","longitude":"2.31667"}},
{"name":"Villeneuve sur Auvers","zipcode":"91580","county":{"code":"91","name":"Essonne"},"coords":{"latitude":"48.4667","longitude":"2.25"}},
{"name":"Villiers le B\u00e2cle","zipcode":"91190","county":{"code":"91","name":"Essonne"},"coords":{"latitude":"48.7167","longitude":"2.11667"}},
{"name":"Villiers sur Orge","zipcode":"91700","county":{"code":"91","name":"Essonne"},"coords":{"latitude":"48.65","longitude":"2.3"}},
{"name":"Viry Chatillon","zipcode":"91170","county":{"code":"91","name":"Essonne"},"coords":{"latitude":"48.6667","longitude":"2.38333"}},
{"name":"Wissous","zipcode":"91320","county":{"code":"91","name":"Essonne"},"coords":{"latitude":"48.7333","longitude":"2.33333"}},
{"name":"Yerres","zipcode":"91330","county":{"code":"91","name":"Essonne"},"coords":{"latitude":"48.7167","longitude":"2.5"}},
{"name":"Antony","zipcode":"92160","county":{"code":"92","name":"Hauts de seine"},"coords":{"latitude":"48.75","longitude":"2.3"}},
{"name":"Asni\u00e8res sur Seine","zipcode":"92600","county":{"code":"92","name":"Hauts de seine"},"coords":{"latitude":"48.91","longitude":"2.28"}},
{"name":"Bagneux","zipcode":"92220","county":{"code":"92","name":"Hauts de seine"},"coords":{"latitude":"48.8","longitude":"2.3"}},
{"name":"Bois Colombes","zipcode":"92270","county":{"code":"92","name":"Hauts de seine"},"coords":{"latitude":"48.9167","longitude":"2.26667"}},
{"name":"Boulogne Billancourt","zipcode":"92100","county":{"code":"92","name":"Hauts de seine"},"coords":{"latitude":"48.8333","longitude":"2.25"}},
{"name":"Bourg la Reine","zipcode":"92340","county":{"code":"92","name":"Hauts de seine"},"coords":{"latitude":"48.775","longitude":"2.31667"}},
{"name":"Ch\u00e2tenay Malabry","zipcode":"92290","county":{"code":"92","name":"Hauts de seine"},"coords":{"latitude":"48.7667","longitude":"2.26667"}},
{"name":"Ch\u00e2tillon","zipcode":"92320","county":{"code":"92","name":"Hauts de seine"},"coords":{"latitude":"48.8","longitude":"2.28333"}},
{"name":"Chaville","zipcode":"92370","county":{"code":"92","name":"Hauts de seine"},"coords":{"latitude":"48.8","longitude":"2.2"}},
{"name":"Clamart","zipcode":"92140","county":{"code":"92","name":"Hauts de seine"},"coords":{"latitude":"48.8","longitude":"2.26667"}},
{"name":"Clichy","zipcode":"92110","county":{"code":"92","name":"Hauts de seine"},"coords":{"latitude":"48.9","longitude":"2.3"}},
{"name":"Colombes","zipcode":"92700","county":{"code":"92","name":"Hauts de seine"},"coords":{"latitude":"48.9167","longitude":"2.25"}},
{"name":"Courbevoie","zipcode":"92400","county":{"code":"92","name":"Hauts de seine"},"coords":{"latitude":"48.89","longitude":"2.25"}},
{"name":"Fontenay aux Roses","zipcode":"92260","county":{"code":"92","name":"Hauts de seine"},"coords":{"latitude":"48.7833","longitude":"2.28333"}},
{"name":"Garches","zipcode":"92380","county":{"code":"92","name":"Hauts de seine"},"coords":{"latitude":"48.8417","longitude":"2.18333"}},
{"name":"Gennevilliers","zipcode":"92230","county":{"code":"92","name":"Hauts de seine"},"coords":{"latitude":"48.9333","longitude":"2.3"}},
{"name":"Issy les Moulineaux","zipcode":"92130","county":{"code":"92","name":"Hauts de seine"},"coords":{"latitude":"48.8167","longitude":"2.26667"}},
{"name":"La Garenne Colombes","zipcode":"92250","county":{"code":"92","name":"Hauts de seine"},"coords":{"latitude":"48.9","longitude":"2.25"}},
{"name":"Le Plessis Robinson","zipcode":"92350","county":{"code":"92","name":"Hauts de seine"},"coords":{"latitude":"48.7833","longitude":"2.26667"}},
{"name":"Levallois Perret","zipcode":"92300","county":{"code":"92","name":"Hauts de seine"},"coords":{"latitude":"48.9","longitude":"2.28333"}},
{"name":"Malakoff","zipcode":"92240","county":{"code":"92","name":"Hauts de seine"},"coords":{"latitude":"48.8167","longitude":"2.3"}},
{"name":"Marnes la Coquette","zipcode":"92430","county":{"code":"92","name":"Hauts de seine"},"coords":{"latitude":"48.8333","longitude":"2.175"}},
{"name":"Meudon","zipcode":"92190","county":{"code":"92","name":"Hauts de seine"},"coords":{"latitude":"48.8083","longitude":"2.24167"}},
{"name":"Montrouge","zipcode":"92120","county":{"code":"92","name":"Hauts de seine"},"coords":{"latitude":"48.8167","longitude":"2.31667"}},
{"name":"Nanterre","zipcode":"92000","county":{"code":"92","name":"Hauts de seine"},"coords":{"latitude":"48.9","longitude":"2.2"}},
{"name":"Neuilly sur Seine","zipcode":"92200","county":{"code":"92","name":"Hauts de seine"},"coords":{"latitude":"48.8833","longitude":"2.26667"}},
{"name":"Puteaux","zipcode":"92800","county":{"code":"92","name":"Hauts de seine"},"coords":{"latitude":"48.8667","longitude":"2.23333"}},
{"name":"Rueil Malmaison","zipcode":"92500","county":{"code":"92","name":"Hauts de seine"},"coords":{"latitude":"48.8833","longitude":"2.2"}},
{"name":"S\u00e8vres","zipcode":"92310","county":{"code":"92","name":"Hauts de seine"},"coords":{"latitude":"48.8167","longitude":"2.2"}},
{"name":"Saint Cloud","zipcode":"92210","county":{"code":"92","name":"Hauts de seine"},"coords":{"latitude":"48.8417","longitude":"2.21667"}},
{"name":"Sceaux","zipcode":"92330","county":{"code":"92","name":"Hauts de seine"},"coords":{"latitude":"48.7833","longitude":"2.28333"}},
{"name":"Suresnes","zipcode":"92150","county":{"code":"92","name":"Hauts de seine"},"coords":{"latitude":"48.8667","longitude":"2.23333"}},
{"name":"Vanves","zipcode":"92170","county":{"code":"92","name":"Hauts de seine"},"coords":{"latitude":"48.8333","longitude":"2.3"}},
{"name":"Vaucresson","zipcode":"92420","county":{"code":"92","name":"Hauts de seine"},"coords":{"latitude":"48.8333","longitude":"2.175"}},
{"name":"Ville d'Avray","zipcode":"92410","county":{"code":"92","name":"Hauts de seine"},"coords":{"latitude":"48.825","longitude":"2.19167"}},
{"name":"Villeneuve la Garenne","zipcode":"92390","county":{"code":"92","name":"Hauts de seine"},"coords":{"latitude":"48.9333","longitude":"2.33333"}},
{"name":"Aubervilliers","zipcode":"93300","county":{"code":"93","name":"Seine Saint Denis"},"coords":{"latitude":"48.9167","longitude":"2.38333"}},
{"name":"Aulnay sous Bois","zipcode":"93600","county":{"code":"93","name":"Seine Saint Denis"},"coords":{"latitude":"48.95","longitude":"2.51667"}},
{"name":"Bagnolet","zipcode":"93170","county":{"code":"93","name":"Seine Saint Denis"},"coords":{"latitude":"48.8667","longitude":"2.41667"}},
{"name":"Bobigny","zipcode":"93000","county":{"code":"93","name":"Seine Saint Denis"},"coords":{"latitude":"48.9","longitude":"2.45"}},
{"name":"Bondy","zipcode":"93140","county":{"code":"93","name":"Seine Saint Denis"},"coords":{"latitude":"48.9","longitude":"2.46667"}},
{"name":"Clichy sous Bois","zipcode":"93390","county":{"code":"93","name":"Seine Saint Denis"},"coords":{"latitude":"48.9167","longitude":"2.55"}},
{"name":"Coubron","zipcode":"93470","county":{"code":"93","name":"Seine Saint Denis"},"coords":{"latitude":"48.9167","longitude":"2.58333"}},
{"name":"Drancy","zipcode":"93700","county":{"code":"93","name":"Seine Saint Denis"},"coords":{"latitude":"48.9333","longitude":"2.45"}},
{"name":"Dugny","zipcode":"93440","county":{"code":"93","name":"Seine Saint Denis"},"coords":{"latitude":"48.95","longitude":"2.41667"}},
{"name":"Epinay sur Seine","zipcode":"93800","county":{"code":"93","name":"Seine Saint Denis"},"coords":{"latitude":"48.95","longitude":"2.30833"}},
{"name":"Gagny","zipcode":"93220","county":{"code":"93","name":"Seine Saint Denis"},"coords":{"latitude":"48.8833","longitude":"2.53333"}},
{"name":"Gournay sur Marne","zipcode":"93460","county":{"code":"93","name":"Seine Saint Denis"},"coords":{"latitude":"48.8667","longitude":"2.56667"}},
{"name":"La Courneuve","zipcode":"93120","county":{"code":"93","name":"Seine Saint Denis"},"coords":{"latitude":"48.9167","longitude":"2.38333"}},
{"name":"Le Blanc Mesnil","zipcode":"93150","county":{"code":"93","name":"Seine Saint Denis"},"coords":{"latitude":"48.9333","longitude":"2.45"}},
{"name":"Le Bourget","zipcode":"93350","county":{"code":"93","name":"Seine Saint Denis"},"coords":{"latitude":"48.9333","longitude":"2.41667"}},
{"name":"Le Pr\u00e9 Saint Gervais","zipcode":"93310","county":{"code":"93","name":"Seine Saint Denis"},"coords":{"latitude":"48.8833","longitude":"2.4"}},
{"name":"Le Raincy","zipcode":"93340","county":{"code":"93","name":"Seine Saint Denis"},"coords":{"latitude":"48.9","longitude":"2.51667"}},
{"name":"Les Lilas","zipcode":"93260","county":{"code":"93","name":"Seine Saint Denis"},"coords":{"latitude":"48.8833","longitude":"2.43333"}},
{"name":"Les Pavillons sous Bois","zipcode":"93320","county":{"code":"93","name":"Seine Saint Denis"},"coords":{"latitude":"48.9","longitude":"2.51667"}},
{"name":"L'Ile Saint Denis","zipcode":"93450","county":{"code":"93","name":"Seine Saint Denis"},"coords":{"latitude":"48.9333","longitude":"2.33333"}},
{"name":"Livry Gargan","zipcode":"93190","county":{"code":"93","name":"Seine Saint Denis"},"coords":{"latitude":"48.9167","longitude":"2.55"}},
{"name":"Montfermeil","zipcode":"93370","county":{"code":"93","name":"Seine Saint Denis"},"coords":{"latitude":"48.9","longitude":"2.56667"}},
{"name":"Montreuil","zipcode":"93100","county":{"code":"93","name":"Seine Saint Denis"},"coords":{"latitude":"48.8667","longitude":"2.43333"}},
{"name":"Neuilly Plaisance","zipcode":"93360","county":{"code":"93","name":"Seine Saint Denis"},"coords":{"latitude":"48.8667","longitude":"2.51667"}},
{"name":"Neuilly sur Marne","zipcode":"93330","county":{"code":"93","name":"Seine Saint Denis"},"coords":{"latitude":"48.85","longitude":"2.53333"}},
{"name":"Noisy le Grand","zipcode":"93160","county":{"code":"93","name":"Seine Saint Denis"},"coords":{"latitude":"48.85","longitude":"2.56667"}},
{"name":"Noisy le Sec","zipcode":"93130","county":{"code":"93","name":"Seine Saint Denis"},"coords":{"latitude":"48.8833","longitude":"2.46667"}},
{"name":"Pantin","zipcode":"93500","county":{"code":"93","name":"Seine Saint Denis"},"coords":{"latitude":"48.9","longitude":"2.4"}},
{"name":"Pierrefitte sur Seine","zipcode":"93380","county":{"code":"93","name":"Seine Saint Denis"},"coords":{"latitude":"48.9667","longitude":"2.36667"}},
{"name":"Romainville","zipcode":"93230","county":{"code":"93","name":"Seine Saint Denis"},"coords":{"latitude":"48.8833","longitude":"2.43333"}},
{"name":"Rosny sous Bois","zipcode":"93110","county":{"code":"93","name":"Seine Saint Denis"},"coords":{"latitude":"48.8667","longitude":"2.48333"}},
{"name":"Saint Denis","zipcode":"93200","county":{"code":"93","name":"Seine Saint Denis"},"coords":{"latitude":"48.9333","longitude":"2.35833"}},
{"name":"Saint Ouen","zipcode":"93400","county":{"code":"93","name":"Seine Saint Denis"},"coords":{"latitude":"48.9","longitude":"2.33333"}},
{"name":"Sevran","zipcode":"93270","county":{"code":"93","name":"Seine Saint Denis"},"coords":{"latitude":"48.9333","longitude":"2.53333"}},
{"name":"Stains","zipcode":"93240","county":{"code":"93","name":"Seine Saint Denis"},"coords":{"latitude":"48.95","longitude":"2.38333"}},
{"name":"Tremblay en France","zipcode":"93290","county":{"code":"93","name":"Seine Saint Denis"},"coords":{"latitude":"0","longitude":"0"}},
{"name":"Vaujours","zipcode":"93410","county":{"code":"93","name":"Seine Saint Denis"},"coords":{"latitude":"48.9333","longitude":"2.56667"}},
{"name":"Villemomble","zipcode":"93250","county":{"code":"93","name":"Seine Saint Denis"},"coords":{"latitude":"48.8833","longitude":"2.5"}},
{"name":"Villepinte","zipcode":"93420","county":{"code":"93","name":"Seine Saint Denis"},"coords":{"latitude":"48.9667","longitude":"2.53333"}},
{"name":"Villetaneuse","zipcode":"93430","county":{"code":"93","name":"Seine Saint Denis"},"coords":{"latitude":"48.9583","longitude":"2.34167"}},
{"name":"Ablon sur Seine","zipcode":"94480","county":{"code":"94","name":"Val de Marne"},"coords":{"latitude":"48.7167","longitude":"2.41667"}},
{"name":"Alfortville","zipcode":"94140","county":{"code":"94","name":"Val de Marne"},"coords":{"latitude":"48.8","longitude":"2.41667"}},
{"name":"Arcueil","zipcode":"94110","county":{"code":"94","name":"Val de Marne"},"coords":{"latitude":"48.8","longitude":"2.33333"}},
{"name":"Boissy Saint L\u00e9ger","zipcode":"94470","county":{"code":"94","name":"Val de Marne"},"coords":{"latitude":"48.75","longitude":"2.51667"}},
{"name":"Bonneuil sur Marne","zipcode":"94380","county":{"code":"94","name":"Val de Marne"},"coords":{"latitude":"48.7667","longitude":"2.48333"}},
{"name":"Bry sur Marne","zipcode":"94360","county":{"code":"94","name":"Val de Marne"},"coords":{"latitude":"48.8333","longitude":"2.51667"}},
{"name":"Cachan","zipcode":"94230","county":{"code":"94","name":"Val de Marne"},"coords":{"latitude":"48.7833","longitude":"2.33333"}},
{"name":"Champigny sur Marne","zipcode":"94500","county":{"code":"94","name":"Val de Marne"},"coords":{"latitude":"48.8167","longitude":"2.51667"}},
{"name":"Charenton le Pont","zipcode":"94220","county":{"code":"94","name":"Val de Marne"},"coords":{"latitude":"48.8167","longitude":"2.41667"}},
{"name":"Chennevi\u00e8res sur Marne","zipcode":"94430","county":{"code":"94","name":"Val de Marne"},"coords":{"latitude":"48.8","longitude":"2.51667"}},
{"name":"Chevilly Larue","zipcode":"94550","county":{"code":"94","name":"Val de Marne"},"coords":{"latitude":"48.7667","longitude":"2.35"}},
{"name":"Choisy le Roi","zipcode":"94600","county":{"code":"94","name":"Val de Marne"},"coords":{"latitude":"48.7667","longitude":"2.41667"}},
{"name":"Cr\u00e9teil","zipcode":"94000","county":{"code":"94","name":"Val de Marne"},"coords":{"latitude":"48.7833","longitude":"2.46667"}},
{"name":"Fontenay sous Bois","zipcode":"94120","county":{"code":"94","name":"Val de Marne"},"coords":{"latitude":"48.85","longitude":"2.48333"}},
{"name":"Fresnes","zipcode":"94260","county":{"code":"94","name":"Val de Marne"},"coords":{"latitude":"48.75","longitude":"2.31667"}},
{"name":"Gentilly","zipcode":"94250","county":{"code":"94","name":"Val de Marne"},"coords":{"latitude":"48.8167","longitude":"2.33333"}},
{"name":"Ivry sur Seine","zipcode":"94200","county":{"code":"94","name":"Val de Marne"},"coords":{"latitude":"48.8167","longitude":"2.38333"}},
{"name":"Joinville le Pont","zipcode":"94340","county":{"code":"94","name":"Val de Marne"},"coords":{"latitude":"48.8167","longitude":"2.46667"}},
{"name":"La Queue en Brie","zipcode":"94510","county":{"code":"94","name":"Val de Marne"},"coords":{"latitude":"48.7833","longitude":"2.58333"}},
{"name":"Le Kremlin Bic\u00eatre","zipcode":"94270","county":{"code":"94","name":"Val de Marne"},"coords":{"latitude":"48.8167","longitude":"2.36667"}},
{"name":"Le Perreux sur Marne","zipcode":"94170","county":{"code":"94","name":"Val de Marne"},"coords":{"latitude":"48.85","longitude":"2.5"}},
{"name":"Le Plessis Tr\u00e9vise","zipcode":"94420","county":{"code":"94","name":"Val de Marne"},"coords":{"latitude":"48.8167","longitude":"2.56667"}},
{"name":"L'Hay les Roses","zipcode":"94240","county":{"code":"94","name":"Val de Marne"},"coords":{"latitude":"48.7833","longitude":"2.33333"}},
{"name":"Limeil Br\u00e9vannes","zipcode":"94450","county":{"code":"94","name":"Val de Marne"},"coords":{"latitude":"48.7333","longitude":"2.48333"}},
{"name":"Maisons Alfort","zipcode":"94700","county":{"code":"94","name":"Val de Marne"},"coords":{"latitude":"48.8","longitude":"2.43333"}},
{"name":"Mandres les Roses","zipcode":"94520","county":{"code":"94","name":"Val de Marne"},"coords":{"latitude":"48.7","longitude":"2.55"}},
{"name":"Marolles en Brie","zipcode":"94440","county":{"code":"94","name":"Val de Marne"},"coords":{"latitude":"48.7333","longitude":"2.55"}},
{"name":"Nogent sur Marne","zipcode":"94130","county":{"code":"94","name":"Val de Marne"},"coords":{"latitude":"48.8333","longitude":"2.48333"}},
{"name":"Noiseau","zipcode":"94880","county":{"code":"94","name":"Val de Marne"},"coords":{"latitude":"48.7833","longitude":"2.55"}},
{"name":"Orly","zipcode":"94310","county":{"code":"94","name":"Val de Marne"},"coords":{"latitude":"48.75","longitude":"2.4"}},
{"name":"Ormesson sur Marne","zipcode":"94490","county":{"code":"94","name":"Val de Marne"},"coords":{"latitude":"48.7833","longitude":"2.55"}},
{"name":"P\u00e9rigny","zipcode":"94520","county":{"code":"94","name":"Val de Marne"},"coords":{"latitude":"48.7","longitude":"2.55"}},
{"name":"Rungis","zipcode":"94150","county":{"code":"94","name":"Val de Marne"},"coords":{"latitude":"48.75","longitude":"2.35"}},
{"name":"Saint Mand\u00e9","zipcode":"94160","county":{"code":"94","name":"Val de Marne"},"coords":{"latitude":"48.8333","longitude":"2.41667"}},
{"name":"Saint Maur des Foss\u00e9s","zipcode":"94100","county":{"code":"94","name":"Val de Marne"},"coords":{"latitude":"48.8","longitude":"2.5"}},
{"name":"Saint Maurice","zipcode":"94410","county":{"code":"94","name":"Val de Marne"},"coords":{"latitude":"48.8167","longitude":"2.45833"}},
{"name":"Santeny","zipcode":"94440","county":{"code":"94","name":"Val de Marne"},"coords":{"latitude":"48.7167","longitude":"2.56667"}},
{"name":"Sucy en Brie","zipcode":"94370","county":{"code":"94","name":"Val de Marne"},"coords":{"latitude":"48.7667","longitude":"2.53333"}},
{"name":"Thiais","zipcode":"94320","county":{"code":"94","name":"Val de Marne"},"coords":{"latitude":"48.7667","longitude":"2.38333"}},
{"name":"Valenton","zipcode":"94460","county":{"code":"94","name":"Val de Marne"},"coords":{"latitude":"48.75","longitude":"2.46667"}},
{"name":"Villecresnes","zipcode":"94440","county":{"code":"94","name":"Val de Marne"},"coords":{"latitude":"48.7167","longitude":"2.53333"}},
{"name":"Villejuif","zipcode":"94800","county":{"code":"94","name":"Val de Marne"},"coords":{"latitude":"48.8","longitude":"2.36667"}},
{"name":"Villeneuve le Roi","zipcode":"94290","county":{"code":"94","name":"Val de Marne"},"coords":{"latitude":"48.7333","longitude":"2.41667"}},
{"name":"Villeneuve Saint Georges","zipcode":"94190","county":{"code":"94","name":"Val de Marne"},"coords":{"latitude":"48.7333","longitude":"2.45"}},
{"name":"Villiers sur Marne","zipcode":"94350","county":{"code":"94","name":"Val de Marne"},"coords":{"latitude":"48.8333","longitude":"2.55"}},
{"name":"Vincennes","zipcode":"94300","county":{"code":"94","name":"Val de Marne"},"coords":{"latitude":"48.85","longitude":"2.43333"}},
{"name":"Vitry sur Seine","zipcode":"94400","county":{"code":"94","name":"Val de Marne"},"coords":{"latitude":"48.7833","longitude":"2.4"}},
{"name":"Ableiges","zipcode":"95450","county":{"code":"95","name":"Val d'Oise"},"coords":{"latitude":"49.0833","longitude":"1.98333"}},
{"name":"Aincourt","zipcode":"95510","county":{"code":"95","name":"Val d'Oise"},"coords":{"latitude":"49.0667","longitude":"1.78333"}},
{"name":"Ambleville","zipcode":"95710","county":{"code":"95","name":"Val d'Oise"},"coords":{"latitude":"49.15","longitude":"1.7"}},
{"name":"Amenucourt","zipcode":"95510","county":{"code":"95","name":"Val d'Oise"},"coords":{"latitude":"49.1","longitude":"1.65"}},
{"name":"Andilly","zipcode":"95580","county":{"code":"95","name":"Val d'Oise"},"coords":{"latitude":"49","longitude":"2.3"}},
{"name":"Argenteuil","zipcode":"95100","county":{"code":"95","name":"Val d'Oise"},"coords":{"latitude":"48.95","longitude":"2.25"}},
{"name":"Arnouville l\u00e8s Gonesse","zipcode":"95400","county":{"code":"95","name":"Val d'Oise"},"coords":{"latitude":"48.9833","longitude":"2.41667"}},
{"name":"Arronville","zipcode":"95810","county":{"code":"95","name":"Val d'Oise"},"coords":{"latitude":"49.1833","longitude":"2.1"}},
{"name":"Arthies","zipcode":"95420","county":{"code":"95","name":"Val d'Oise"},"coords":{"latitude":"49.1","longitude":"1.78333"}},
{"name":"Asni\u00e8res sur Oise","zipcode":"95270","county":{"code":"95","name":"Val d'Oise"},"coords":{"latitude":"49.1333","longitude":"2.35"}},
{"name":"Attainville","zipcode":"95570","county":{"code":"95","name":"Val d'Oise"},"coords":{"latitude":"49.05","longitude":"2.35"}},
{"name":"Auvers sur Oise","zipcode":"95430","county":{"code":"95","name":"Val d'Oise"},"coords":{"latitude":"49.0667","longitude":"2.16667"}},
{"name":"Avernes","zipcode":"95450","county":{"code":"95","name":"Val d'Oise"},"coords":{"latitude":"49.0833","longitude":"1.86667"}},
{"name":"B\u00e9themont la For\u00eat","zipcode":"95840","county":{"code":"95","name":"Val d'Oise"},"coords":{"latitude":"49.05","longitude":"2.25"}},
{"name":"Baillet en France","zipcode":"95560","county":{"code":"95","name":"Val d'Oise"},"coords":{"latitude":"49.0667","longitude":"2.3"}},
{"name":"Banthelu","zipcode":"95420","county":{"code":"95","name":"Val d'Oise"},"coords":{"latitude":"49.1333","longitude":"1.81667"}},
{"name":"Beauchamp","zipcode":"95250","county":{"code":"95","name":"Val d'Oise"},"coords":{"latitude":"49.0167","longitude":"2.2"}},
{"name":"Beaumont sur Oise","zipcode":"95260","county":{"code":"95","name":"Val d'Oise"},"coords":{"latitude":"49.1333","longitude":"2.28333"}},
{"name":"Bellefontaine","zipcode":"95270","county":{"code":"95","name":"Val d'Oise"},"coords":{"latitude":"49.1","longitude":"2.46667"}},
{"name":"Belloy en France","zipcode":"95270","county":{"code":"95","name":"Val d'Oise"},"coords":{"latitude":"49.0833","longitude":"2.38333"}},
{"name":"Bernes sur Oise","zipcode":"95340","county":{"code":"95","name":"Val d'Oise"},"coords":{"latitude":"49.1667","longitude":"2.3"}},
{"name":"Berville","zipcode":"95810","county":{"code":"95","name":"Val d'Oise"},"coords":{"latitude":"49.1833","longitude":"2.06667"}},
{"name":"Bessancourt","zipcode":"95550","county":{"code":"95","name":"Val d'Oise"},"coords":{"latitude":"49.0333","longitude":"2.21667"}},
{"name":"Bezons","zipcode":"95870","county":{"code":"95","name":"Val d'Oise"},"coords":{"latitude":"48.9333","longitude":"2.21667"}},
{"name":"Boisemont","zipcode":"95000","county":{"code":"95","name":"Val d'Oise"},"coords":{"latitude":"49.0167","longitude":"2"}},
{"name":"Boissy l'Aillerie","zipcode":"95650","county":{"code":"95","name":"Val d'Oise"},"coords":{"latitude":"49.0667","longitude":"2.03333"}},
{"name":"Bonneuil en France","zipcode":"95500","county":{"code":"95","name":"Val d'Oise"},"coords":{"latitude":"48.9667","longitude":"2.43333"}},
{"name":"Bouff\u00e9mont","zipcode":"95570","county":{"code":"95","name":"Val d'Oise"},"coords":{"latitude":"49.05","longitude":"2.3"}},
{"name":"Bouqueval","zipcode":"95720","county":{"code":"95","name":"Val d'Oise"},"coords":{"latitude":"49.0167","longitude":"2.43333"}},
{"name":"Br\u00e9an\u00e7on","zipcode":"95640","county":{"code":"95","name":"Val d'Oise"},"coords":{"latitude":"49.15","longitude":"2.01667"}},
{"name":"Bray et L\u00fb","zipcode":"95710","county":{"code":"95","name":"Val d'Oise"},"coords":{"latitude":"49.1333","longitude":"1.65"}},
{"name":"Brignancourt","zipcode":"95640","county":{"code":"95","name":"Val d'Oise"},"coords":{"latitude":"49.1333","longitude":"1.95"}},
{"name":"Bruy\u00e8res sur Oise","zipcode":"95820","county":{"code":"95","name":"Val d'Oise"},"coords":{"latitude":"49.1667","longitude":"2.31667"}},
{"name":"Buhy","zipcode":"95770","county":{"code":"95","name":"Val d'Oise"},"coords":{"latitude":"49.2","longitude":"1.68333"}},
{"name":"Butry sur Oise","zipcode":"95430","county":{"code":"95","name":"Val d'Oise"},"coords":{"latitude":"49.0833","longitude":"2.2"}},
{"name":"Cergy","zipcode":"95000","county":{"code":"95","name":"Val d'Oise"},"coords":{"latitude":"49.0333","longitude":"2.06667"}},
{"name":"Ch\u00e2tenay en France","zipcode":"95190","county":{"code":"95","name":"Val d'Oise"},"coords":{"latitude":"49.0667","longitude":"2.45"}},
{"name":"Ch\u00e9rence","zipcode":"95510","county":{"code":"95","name":"Val d'Oise"},"coords":{"latitude":"49.0833","longitude":"1.68333"}},
{"name":"Champagne sur Oise","zipcode":"95660","county":{"code":"95","name":"Val d'Oise"},"coords":{"latitude":"49.1333","longitude":"2.25"}},
{"name":"Charmont","zipcode":"95420","county":{"code":"95","name":"Val d'Oise"},"coords":{"latitude":"49.1333","longitude":"1.78333"}},
{"name":"Chars","zipcode":"95750","county":{"code":"95","name":"Val d'Oise"},"coords":{"latitude":"49.1667","longitude":"1.93333"}},
{"name":"Chaumontel","zipcode":"95270","county":{"code":"95","name":"Val d'Oise"},"coords":{"latitude":"49.1167","longitude":"2.43333"}},
{"name":"Chaussy","zipcode":"95710","county":{"code":"95","name":"Val d'Oise"},"coords":{"latitude":"49.1167","longitude":"1.68333"}},
{"name":"Chauvry","zipcode":"95560","county":{"code":"95","name":"Val d'Oise"},"coords":{"latitude":"49.05","longitude":"2.26667"}},
{"name":"Chennevi\u00e8res l\u00e8s Louvres","zipcode":"95380","county":{"code":"95","name":"Val d'Oise"},"coords":{"latitude":"49.05","longitude":"2.55"}},
{"name":"Cl\u00e9ry en Vexin","zipcode":"95420","county":{"code":"95","name":"Val d'Oise"},"coords":{"latitude":"49.1333","longitude":"1.85"}},
{"name":"Commeny","zipcode":"95450","county":{"code":"95","name":"Val d'Oise"},"coords":{"latitude":"49.1167","longitude":"1.9"}},
{"name":"Cond\u00e9court","zipcode":"95450","county":{"code":"95","name":"Val d'Oise"},"coords":{"latitude":"49.0333","longitude":"1.95"}},
{"name":"Cormeilles en Parisis","zipcode":"95240","county":{"code":"95","name":"Val d'Oise"},"coords":{"latitude":"48.9833","longitude":"2.2"}},
{"name":"Cormeilles en Vexin","zipcode":"95830","county":{"code":"95","name":"Val d'Oise"},"coords":{"latitude":"49.1167","longitude":"2.01667"}},
{"name":"Courcelles sur Viosne","zipcode":"95650","county":{"code":"95","name":"Val d'Oise"},"coords":{"latitude":"49.0833","longitude":"2"}},
{"name":"Courdimanche","zipcode":"95800","county":{"code":"95","name":"Val d'Oise"},"coords":{"latitude":"49.0333","longitude":"2"}},
{"name":"Deuil la Barre","zipcode":"95170","county":{"code":"95","name":"Val d'Oise"},"coords":{"latitude":"48.9833","longitude":"2.33333"}},
{"name":"Domont","zipcode":"95330","county":{"code":"95","name":"Val d'Oise"},"coords":{"latitude":"49.0333","longitude":"2.33333"}},
{"name":"Eaubonne","zipcode":"95600","county":{"code":"95","name":"Val d'Oise"},"coords":{"latitude":"49","longitude":"2.28333"}},
{"name":"Ecouen","zipcode":"95440","county":{"code":"95","name":"Val d'Oise"},"coords":{"latitude":"49.0167","longitude":"2.38333"}},
{"name":"Enghien les Bains","zipcode":"95880","county":{"code":"95","name":"Val d'Oise"},"coords":{"latitude":"48.9667","longitude":"2.31667"}},
{"name":"Ennery","zipcode":"95300","county":{"code":"95","name":"Val d'Oise"},"coords":{"latitude":"49.0667","longitude":"2.1"}},
{"name":"Epiais l\u00e8s Louvres","zipcode":"95380","county":{"code":"95","name":"Val d'Oise"},"coords":{"latitude":"49.0333","longitude":"2.55"}},
{"name":"Epiais Rhus","zipcode":"95810","county":{"code":"95","name":"Val d'Oise"},"coords":{"latitude":"49.1167","longitude":"2.06667"}},
{"name":"Epinay Champl\u00e2treux","zipcode":"95270","county":{"code":"95","name":"Val d'Oise"},"coords":{"latitude":"49.0833","longitude":"2.41667"}},
{"name":"Eragny","zipcode":"95610","county":{"code":"95","name":"Val d'Oise"},"coords":{"latitude":"49.0167","longitude":"2.1"}},
{"name":"Ermont","zipcode":"95120","county":{"code":"95","name":"Val d'Oise"},"coords":{"latitude":"48.9833","longitude":"2.26667"}},
{"name":"Ezanville","zipcode":"95460","county":{"code":"95","name":"Val d'Oise"},"coords":{"latitude":"49.0333","longitude":"2.36667"}},
{"name":"Fontenay en Parisis","zipcode":"95190","county":{"code":"95","name":"Val d'Oise"},"coords":{"latitude":"49.05","longitude":"2.45"}},
{"name":"Fosses","zipcode":"95470","county":{"code":"95","name":"Val d'Oise"},"coords":{"latitude":"49.1","longitude":"2.48333"}},
{"name":"Fr\u00e9m\u00e9court","zipcode":"95830","county":{"code":"95","name":"Val d'Oise"},"coords":{"latitude":"49.1167","longitude":"2"}},
{"name":"Fr\u00e9mainville","zipcode":"95450","county":{"code":"95","name":"Val d'Oise"},"coords":{"latitude":"49.0667","longitude":"1.86667"}},
{"name":"Fr\u00e9pillon","zipcode":"95740","county":{"code":"95","name":"Val d'Oise"},"coords":{"latitude":"49.05","longitude":"2.21667"}},
{"name":"Franconville","zipcode":"95130","county":{"code":"95","name":"Val d'Oise"},"coords":{"latitude":"48.9833","longitude":"2.23333"}},
{"name":"Frouville","zipcode":"95690","county":{"code":"95","name":"Val d'Oise"},"coords":{"latitude":"49.15","longitude":"2.15"}},
{"name":"G\u00e9nicourt","zipcode":"95650","county":{"code":"95","name":"Val d'Oise"},"coords":{"latitude":"49.0833","longitude":"2.06667"}},
{"name":"Gadancourt","zipcode":"95450","county":{"code":"95","name":"Val d'Oise"},"coords":{"latitude":"49.1","longitude":"1.86667"}},
{"name":"Garges l\u00e8s Gonesse","zipcode":"95140","county":{"code":"95","name":"Val d'Oise"},"coords":{"latitude":"48.9667","longitude":"2.41667"}},
{"name":"Genainville","zipcode":"95420","county":{"code":"95","name":"Val d'Oise"},"coords":{"latitude":"49.1333","longitude":"1.75"}},
{"name":"Gonesse","zipcode":"95500","county":{"code":"95","name":"Val d'Oise"},"coords":{"latitude":"48.9833","longitude":"2.45"}},
{"name":"Goussainville","zipcode":"95190","county":{"code":"95","name":"Val d'Oise"},"coords":{"latitude":"49.0167","longitude":"2.46667"}},
{"name":"Gouzangrez","zipcode":"95450","county":{"code":"95","name":"Val d'Oise"},"coords":{"latitude":"49.1167","longitude":"1.91667"}},
{"name":"Grisy les Pl\u00e2tres","zipcode":"95810","county":{"code":"95","name":"Val d'Oise"},"coords":{"latitude":"49.1333","longitude":"2.05"}},
{"name":"Groslay","zipcode":"95410","county":{"code":"95","name":"Val d'Oise"},"coords":{"latitude":"48.9833","longitude":"2.35"}},
{"name":"Guiry en Vexin","zipcode":"95450","county":{"code":"95","name":"Val d'Oise"},"coords":{"latitude":"49.1333","longitude":"1.85"}},
{"name":"H\u00e9douville","zipcode":"95690","county":{"code":"95","name":"Val d'Oise"},"coords":{"latitude":"49.15","longitude":"2.16667"}},
{"name":"H\u00e9rouville","zipcode":"95300","county":{"code":"95","name":"Val d'Oise"},"coords":{"latitude":"49.1","longitude":"2.13333"}},
{"name":"Haravilliers","zipcode":"95640","county":{"code":"95","name":"Val d'Oise"},"coords":{"latitude":"49.1833","longitude":"2.05"}},
{"name":"Haute Isle","zipcode":"95780","county":{"code":"95","name":"Val d'Oise"},"coords":{"latitude":"49.0833","longitude":"1.66667"}},
{"name":"Herblay","zipcode":"95220","county":{"code":"95","name":"Val d'Oise"},"coords":{"latitude":"49","longitude":"2.16667"}},
{"name":"Hodent","zipcode":"95420","county":{"code":"95","name":"Val d'Oise"},"coords":{"latitude":"49.15","longitude":"1.76667"}},
{"name":"Jagny sous Bois","zipcode":"95850","county":{"code":"95","name":"Val d'Oise"},"coords":{"latitude":"49.0833","longitude":"2.45"}},
{"name":"Jouy le Moutier","zipcode":"95280","county":{"code":"95","name":"Val d'Oise"},"coords":{"latitude":"49.0167","longitude":"2.03333"}},
{"name":"La Chapelle en Vexin","zipcode":"95420","county":{"code":"95","name":"Val d'Oise"},"coords":{"latitude":"49.1833","longitude":"1.73333"}},
{"name":"La Frette sur Seine","zipcode":"95530","county":{"code":"95","name":"Val d'Oise"},"coords":{"latitude":"48.9667","longitude":"2.18333"}},
{"name":"La Roche Guyon","zipcode":"95780","county":{"code":"95","name":"Val d'Oise"},"coords":{"latitude":"49.0833","longitude":"1.63333"}},
{"name":"Labbeville","zipcode":"95690","county":{"code":"95","name":"Val d'Oise"},"coords":{"latitude":"49.1333","longitude":"2.15"}},
{"name":"Lassy","zipcode":"95270","county":{"code":"95","name":"Val d'Oise"},"coords":{"latitude":"49.1","longitude":"2.45"}},
{"name":"Le Bellay en Vexin","zipcode":"95750","county":{"code":"95","name":"Val d'Oise"},"coords":{"latitude":"49.15","longitude":"1.88333"}},
{"name":"Le Heaulme","zipcode":"95640","county":{"code":"95","name":"Val d'Oise"},"coords":{"latitude":"49.1667","longitude":"2"}},
{"name":"Le Mesnil Aubry","zipcode":"95720","county":{"code":"95","name":"Val d'Oise"},"coords":{"latitude":"49.05","longitude":"2.4"}},
{"name":"Le Perchay","zipcode":"95450","county":{"code":"95","name":"Val d'Oise"},"coords":{"latitude":"49.1167","longitude":"1.93333"}},
{"name":"Le Plessis Bouchard","zipcode":"95130","county":{"code":"95","name":"Val d'Oise"},"coords":{"latitude":"49","longitude":"2.23333"}},
{"name":"Le Plessis Gassot","zipcode":"95720","county":{"code":"95","name":"Val d'Oise"},"coords":{"latitude":"49.0333","longitude":"2.41667"}},
{"name":"Le Plessis Luzarches","zipcode":"95270","county":{"code":"95","name":"Val d'Oise"},"coords":{"latitude":"49.1","longitude":"2.45"}},
{"name":"Le Thillay","zipcode":"95500","county":{"code":"95","name":"Val d'Oise"},"coords":{"latitude":"49","longitude":"2.46667"}},
{"name":"L'Isle Adam","zipcode":"95290","county":{"code":"95","name":"Val d'Oise"},"coords":{"latitude":"49.1167","longitude":"2.23333"}},
{"name":"Livilliers","zipcode":"95300","county":{"code":"95","name":"Val d'Oise"},"coords":{"latitude":"49.1","longitude":"2.1"}},
{"name":"Longuesse","zipcode":"95450","county":{"code":"95","name":"Val d'Oise"},"coords":{"latitude":"49.0667","longitude":"1.93333"}},
{"name":"Louvres","zipcode":"95380","county":{"code":"95","name":"Val d'Oise"},"coords":{"latitude":"49.0333","longitude":"2.5"}},
{"name":"Luzarches","zipcode":"95270","county":{"code":"95","name":"Val d'Oise"},"coords":{"latitude":"49.1167","longitude":"2.41667"}},
{"name":"M\u00e9riel","zipcode":"95630","county":{"code":"95","name":"Val d'Oise"},"coords":{"latitude":"49.0833","longitude":"2.2"}},
{"name":"M\u00e9ry sur Oise","zipcode":"95540","county":{"code":"95","name":"Val d'Oise"},"coords":{"latitude":"49.0667","longitude":"2.2"}},
{"name":"Maffliers","zipcode":"95560","county":{"code":"95","name":"Val d'Oise"},"coords":{"latitude":"49.0833","longitude":"2.31667"}},
{"name":"Magny en Vexin","zipcode":"95420","county":{"code":"95","name":"Val d'Oise"},"coords":{"latitude":"49.15","longitude":"1.78333"}},
{"name":"Mareil en France","zipcode":"95850","county":{"code":"95","name":"Val d'Oise"},"coords":{"latitude":"49.0667","longitude":"2.43333"}},
{"name":"Margency","zipcode":"95580","county":{"code":"95","name":"Val d'Oise"},"coords":{"latitude":"49","longitude":"2.3"}},
{"name":"Marines","zipcode":"95640","county":{"code":"95","name":"Val d'Oise"},"coords":{"latitude":"49.15","longitude":"1.98333"}},
{"name":"Marly la Ville","zipcode":"95670","county":{"code":"95","name":"Val d'Oise"},"coords":{"latitude":"49.0833","longitude":"2.5"}},
{"name":"Maud\u00e9tour en Vexin","zipcode":"95420","county":{"code":"95","name":"Val d'Oise"},"coords":{"latitude":"49.1","longitude":"1.78333"}},
{"name":"Menouville","zipcode":"95810","county":{"code":"95","name":"Val d'Oise"},"coords":{"latitude":"49.15","longitude":"2.1"}},
{"name":"Menucourt","zipcode":"95180","county":{"code":"95","name":"Val d'Oise"},"coords":{"latitude":"49.0167","longitude":"1.98333"}},
{"name":"Moisselles","zipcode":"95570","county":{"code":"95","name":"Val d'Oise"},"coords":{"latitude":"49.05","longitude":"2.33333"}},
{"name":"Montgeroult","zipcode":"95650","county":{"code":"95","name":"Val d'Oise"},"coords":{"latitude":"49.0833","longitude":"2"}},
{"name":"Montigny l\u00e8s Cormeilles","zipcode":"95370","county":{"code":"95","name":"Val d'Oise"},"coords":{"latitude":"48.9833","longitude":"2.18333"}},
{"name":"Montlignon","zipcode":"95680","county":{"code":"95","name":"Val d'Oise"},"coords":{"latitude":"49.0167","longitude":"2.28333"}},
{"name":"Montmagny","zipcode":"95360","county":{"code":"95","name":"Val d'Oise"},"coords":{"latitude":"48.9667","longitude":"2.35"}},
{"name":"Montmorency","zipcode":"95160","county":{"code":"95","name":"Val d'Oise"},"coords":{"latitude":"49","longitude":"2.33333"}},
{"name":"Montreuil sur Epte","zipcode":"95770","county":{"code":"95","name":"Val d'Oise"},"coords":{"latitude":"49.1833","longitude":"1.68333"}},
{"name":"Montsoult","zipcode":"95560","county":{"code":"95","name":"Val d'Oise"},"coords":{"latitude":"49.0667","longitude":"2.31667"}},
{"name":"Mours","zipcode":"95260","county":{"code":"95","name":"Val d'Oise"},"coords":{"latitude":"49.1333","longitude":"2.26667"}},
{"name":"Moussy","zipcode":"95640","county":{"code":"95","name":"Val d'Oise"},"coords":{"latitude":"49.1333","longitude":"1.91667"}},
{"name":"Nerville la For\u00eat","zipcode":"95590","county":{"code":"95","name":"Val d'Oise"},"coords":{"latitude":"49.0833","longitude":"2.28333"}},
{"name":"Nesles la Vall\u00e9e","zipcode":"95690","county":{"code":"95","name":"Val d'Oise"},"coords":{"latitude":"49.1333","longitude":"2.18333"}},
{"name":"Neuilly en Vexin","zipcode":"95640","county":{"code":"95","name":"Val d'Oise"},"coords":{"latitude":"49.1667","longitude":"1.98333"}},
{"name":"Neuville sur Oise","zipcode":"95000","county":{"code":"95","name":"Val d'Oise"},"coords":{"latitude":"49.0167","longitude":"2.06667"}},
{"name":"Nointel","zipcode":"95590","county":{"code":"95","name":"Val d'Oise"},"coords":{"latitude":"49.1333","longitude":"2.3"}},
{"name":"Noisy sur Oise","zipcode":"95270","county":{"code":"95","name":"Val d'Oise"},"coords":{"latitude":"49.1333","longitude":"2.33333"}},
{"name":"Nucourt","zipcode":"95420","county":{"code":"95","name":"Val d'Oise"},"coords":{"latitude":"49.1667","longitude":"1.85"}},
{"name":"Omerville","zipcode":"95420","county":{"code":"95","name":"Val d'Oise"},"coords":{"latitude":"49.1333","longitude":"1.71667"}},
{"name":"Osny","zipcode":"95520","county":{"code":"95","name":"Val d'Oise"},"coords":{"latitude":"49.0667","longitude":"2.06667"}},
{"name":"Parmain","zipcode":"95620","county":{"code":"95","name":"Val d'Oise"},"coords":{"latitude":"49.1167","longitude":"2.21667"}},
{"name":"Persan","zipcode":"95340","county":{"code":"95","name":"Val d'Oise"},"coords":{"latitude":"49.15","longitude":"2.26667"}},
{"name":"Pierrelaye","zipcode":"95480","county":{"code":"95","name":"Val d'Oise"},"coords":{"latitude":"49.0167","longitude":"2.16667"}},
{"name":"Piscop","zipcode":"95350","county":{"code":"95","name":"Val d'Oise"},"coords":{"latitude":"49.0167","longitude":"2.35"}},
{"name":"Pontoise","zipcode":"95000","county":{"code":"95","name":"Val d'Oise"},"coords":{"latitude":"49.05","longitude":"2.1"}},
{"name":"Presles","zipcode":"95590","county":{"code":"95","name":"Val d'Oise"},"coords":{"latitude":"49.1167","longitude":"2.3"}},
{"name":"Puiseux en France","zipcode":"95380","county":{"code":"95","name":"Val d'Oise"},"coords":{"latitude":"49.0667","longitude":"2.48333"}},
{"name":"Puiseux Pontoise","zipcode":"95650","county":{"code":"95","name":"Val d'Oise"},"coords":{"latitude":"49.05","longitude":"2.01667"}},
{"name":"Roissy en France","zipcode":"95700","county":{"code":"95","name":"Val d'Oise"},"coords":{"latitude":"49","longitude":"2.51667"}},
{"name":"Ronquerolles","zipcode":"95340","county":{"code":"95","name":"Val d'Oise"},"coords":{"latitude":"49.1667","longitude":"2.21667"}},
{"name":"Sagy","zipcode":"95450","county":{"code":"95","name":"Val d'Oise"},"coords":{"latitude":"49.05","longitude":"1.95"}},
{"name":"Saint Brice sous For\u00eat","zipcode":"95350","county":{"code":"95","name":"Val d'Oise"},"coords":{"latitude":"49","longitude":"2.36667"}},
{"name":"Saint Clair sur Epte","zipcode":"95770","county":{"code":"95","name":"Val d'Oise"},"coords":{"latitude":"49.2","longitude":"1.68333"}},
{"name":"Saint Cyr en Arthies","zipcode":"95510","county":{"code":"95","name":"Val d'Oise"},"coords":{"latitude":"49.0667","longitude":"1.75"}},
{"name":"Saint Gervais","zipcode":"95420","county":{"code":"95","name":"Val d'Oise"},"coords":{"latitude":"49.1667","longitude":"1.76667"}},
{"name":"Saint Gratien","zipcode":"95210","county":{"code":"95","name":"Val d'Oise"},"coords":{"latitude":"48.9667","longitude":"2.28333"}},
{"name":"Saint Leu la For\u00eat","zipcode":"95320","county":{"code":"95","name":"Val d'Oise"},"coords":{"latitude":"49.0167","longitude":"2.25"}},
{"name":"Saint Martin du Tertre","zipcode":"95270","county":{"code":"95","name":"Val d'Oise"},"coords":{"latitude":"49.1","longitude":"2.35"}},
{"name":"Saint Ouen l'Aum\u00f4ne","zipcode":"95310","county":{"code":"95","name":"Val d'Oise"},"coords":{"latitude":"49.05","longitude":"2.11667"}},
{"name":"Saint Prix","zipcode":"95390","county":{"code":"95","name":"Val d'Oise"},"coords":{"latitude":"49.0167","longitude":"2.26667"}},
{"name":"Saint Witz","zipcode":"95470","county":{"code":"95","name":"Val d'Oise"},"coords":{"latitude":"49.0833","longitude":"2.56667"}},
{"name":"Sannois","zipcode":"95110","county":{"code":"95","name":"Val d'Oise"},"coords":{"latitude":"48.9667","longitude":"2.25"}},
{"name":"Santeuil","zipcode":"95640","county":{"code":"95","name":"Val d'Oise"},"coords":{"latitude":"49.1333","longitude":"1.95"}},
{"name":"Sarcelles","zipcode":"95200","county":{"code":"95","name":"Val d'Oise"},"coords":{"latitude":"49","longitude":"2.38333"}},
{"name":"Seraincourt","zipcode":"95450","county":{"code":"95","name":"Val d'Oise"},"coords":{"latitude":"49.0333","longitude":"1.86667"}},
{"name":"Seugy","zipcode":"95270","county":{"code":"95","name":"Val d'Oise"},"coords":{"latitude":"49.1167","longitude":"2.4"}},
{"name":"Soisy sous Montmorency","zipcode":"95230","county":{"code":"95","name":"Val d'Oise"},"coords":{"latitude":"48.9833","longitude":"2.3"}},
{"name":"Survilliers","zipcode":"95470","county":{"code":"95","name":"Val d'Oise"},"coords":{"latitude":"49.1","longitude":"2.55"}},
{"name":"Taverny","zipcode":"95150","county":{"code":"95","name":"Val d'Oise"},"coords":{"latitude":"49.0333","longitude":"2.21667"}},
{"name":"Th\u00e9m\u00e9ricourt","zipcode":"95450","county":{"code":"95","name":"Val d'Oise"},"coords":{"latitude":"49.0833","longitude":"1.9"}},
{"name":"Theuville","zipcode":"95810","county":{"code":"95","name":"Val d'Oise"},"coords":{"latitude":"49.15","longitude":"2.06667"}},
{"name":"Us","zipcode":"95450","county":{"code":"95","name":"Val d'Oise"},"coords":{"latitude":"49.1","longitude":"1.96667"}},
{"name":"V\u00e9mars","zipcode":"95470","county":{"code":"95","name":"Val d'Oise"},"coords":{"latitude":"49.0667","longitude":"2.56667"}},
{"name":"V\u00e9theuil","zipcode":"95510","county":{"code":"95","name":"Val d'Oise"},"coords":{"latitude":"49.0667","longitude":"1.7"}},
{"name":"Vallangoujard","zipcode":"95810","county":{"code":"95","name":"Val d'Oise"},"coords":{"latitude":"49.1333","longitude":"2.11667"}},
{"name":"Valmondois","zipcode":"95760","county":{"code":"95","name":"Val d'Oise"},"coords":{"latitude":"49.1","longitude":"2.2"}},
{"name":"Vaudherland","zipcode":"95500","county":{"code":"95","name":"Val d'Oise"},"coords":{"latitude":"49","longitude":"2.48333"}},
{"name":"Vaur\u00e9al","zipcode":"95490","county":{"code":"95","name":"Val d'Oise"},"coords":{"latitude":"49.0333","longitude":"2.03333"}},
{"name":"Viarmes","zipcode":"95270","county":{"code":"95","name":"Val d'Oise"},"coords":{"latitude":"49.1333","longitude":"2.36667"}},
{"name":"Vienne en Arthies","zipcode":"95510","county":{"code":"95","name":"Val d'Oise"},"coords":{"latitude":"49.0667","longitude":"1.73333"}},
{"name":"Vigny","zipcode":"95450","county":{"code":"95","name":"Val d'Oise"},"coords":{"latitude":"49.0833","longitude":"1.93333"}},
{"name":"Villaines sous Bois","zipcode":"95570","county":{"code":"95","name":"Val d'Oise"},"coords":{"latitude":"49.0833","longitude":"2.36667"}},
{"name":"Villeron","zipcode":"95380","county":{"code":"95","name":"Val d'Oise"},"coords":{"latitude":"49.05","longitude":"2.53333"}},
{"name":"Villers en Arthies","zipcode":"95510","county":{"code":"95","name":"Val d'Oise"},"coords":{"latitude":"49.1","longitude":"1.73333"}},
{"name":"Villiers Adam","zipcode":"95840","county":{"code":"95","name":"Val d'Oise"},"coords":{"latitude":"49.0667","longitude":"2.23333"}},
{"name":"Villiers le Bel","zipcode":"95400","county":{"code":"95","name":"Val d'Oise"},"coords":{"latitude":"49","longitude":"2.38333"}},
{"name":"Villiers le Sec","zipcode":"95720","county":{"code":"95","name":"Val d'Oise"},"coords":{"latitude":"49.0667","longitude":"2.4"}},
{"name":"Wy dit Joli Village","zipcode":"95420","county":{"code":"95","name":"Val d'Oise"},"coords":{"latitude":"49.1","longitude":"1.83333"}},
{"name":"Ach\u00e8res la For\u00eat","zipcode":"77760","county":{"code":"77","name":"Seine et Marne"},"coords":{"latitude":"48.35","longitude":"2.56667"}},
{"name":"Amillis","zipcode":"77120","county":{"code":"77","name":"Seine et Marne"},"coords":{"latitude":"48.7333","longitude":"3.13333"}},
{"name":"Amponville","zipcode":"77760","county":{"code":"77","name":"Seine et Marne"},"coords":{"latitude":"48.2833","longitude":"2.53333"}},
{"name":"Andrezel","zipcode":"77390","county":{"code":"77","name":"Seine et Marne"},"coords":{"latitude":"48.6","longitude":"2.81667"}},
{"name":"Annet sur Marne","zipcode":"77410","county":{"code":"77","name":"Seine et Marne"},"coords":{"latitude":"48.9167","longitude":"2.71667"}},
{"name":"Arbonne la For\u00eat","zipcode":"77630","county":{"code":"77","name":"Seine et Marne"},"coords":{"latitude":"0","longitude":"0"}},
{"name":"Argenti\u00e8res","zipcode":"77390","county":{"code":"77","name":"Seine et Marne"},"coords":{"latitude":"48.65","longitude":"2.86667"}},
{"name":"Armenti\u00e8res en Brie","zipcode":"77440","county":{"code":"77","name":"Seine et Marne"},"coords":{"latitude":"48.9833","longitude":"3.01667"}},
{"name":"Arville","zipcode":"77890","county":{"code":"77","name":"Seine et Marne"},"coords":{"latitude":"48.1833","longitude":"2.55"}},
{"name":"Aubepierre Ozouer le Repos","zipcode":"77720","county":{"code":"77","name":"Seine et Marne"},"coords":{"latitude":"0","longitude":"0"}},
{"name":"Aufferville","zipcode":"77570","county":{"code":"77","name":"Seine et Marne"},"coords":{"latitude":"48.2167","longitude":"2.61667"}},
{"name":"Augers en Brie","zipcode":"77560","county":{"code":"77","name":"Seine et Marne"},"coords":{"latitude":"48.6833","longitude":"3.35"}},
{"name":"Aulnoy","zipcode":"77120","county":{"code":"77","name":"Seine et Marne"},"coords":{"latitude":"48.85","longitude":"3.1"}},
{"name":"Avon","zipcode":"77210","county":{"code":"77","name":"Seine et Marne"},"coords":{"latitude":"48.4","longitude":"2.71667"}},
{"name":"Baby","zipcode":"77480","county":{"code":"77","name":"Seine et Marne"},"coords":{"latitude":"48.4","longitude":"3.33333"}},
{"name":"Bagneaux sur Loing","zipcode":"77167","county":{"code":"77","name":"Seine et Marne"},"coords":{"latitude":"48.2333","longitude":"2.7"}},
{"name":"Bailly Romainvilliers","zipcode":"77700","county":{"code":"77","name":"Seine et Marne"},"coords":{"latitude":"48.8333","longitude":"2.81667"}},
{"name":"Balloy","zipcode":"77118","county":{"code":"77","name":"Seine et Marne"},"coords":{"latitude":"48.4","longitude":"3.13333"}},
{"name":"Bannost Villegagnon","zipcode":"77970","county":{"code":"77","name":"Seine et Marne"},"coords":{"latitude":"0","longitude":"0"}},
{"name":"Barbey","zipcode":"77130","county":{"code":"77","name":"Seine et Marne"},"coords":{"latitude":"48.3667","longitude":"3.05"}},
{"name":"Barbizon","zipcode":"77630","county":{"code":"77","name":"Seine et Marne"},"coords":{"latitude":"48.45","longitude":"2.6"}},
{"name":"Barcy","zipcode":"77910","county":{"code":"77","name":"Seine et Marne"},"coords":{"latitude":"49.0167","longitude":"2.88333"}},
{"name":"Bassevelle","zipcode":"77750","county":{"code":"77","name":"Seine et Marne"},"coords":{"latitude":"48.9333","longitude":"3.28333"}},
{"name":"Bazoches l\u00e8s Bray","zipcode":"77118","county":{"code":"77","name":"Seine et Marne"},"coords":{"latitude":"48.4","longitude":"3.18333"}},
{"name":"Beauchery Saint Martin","zipcode":"77560","county":{"code":"77","name":"Seine et Marne"},"coords":{"latitude":"0","longitude":"0"}},
{"name":"Beaumont du G\u00e2tinais","zipcode":"77890","county":{"code":"77","name":"Seine et Marne"},"coords":{"latitude":"0","longitude":"0"}},
{"name":"Beautheil","zipcode":"77120","county":{"code":"77","name":"Seine et Marne"},"coords":{"latitude":"48.75","longitude":"3.08333"}},
{"name":"Beauvoir","zipcode":"77390","county":{"code":"77","name":"Seine et Marne"},"coords":{"latitude":"48.6333","longitude":"2.86667"}},
{"name":"Bellot","zipcode":"77510","county":{"code":"77","name":"Seine et Marne"},"coords":{"latitude":"48.85","longitude":"3.31667"}},
{"name":"Bernay Vilbert","zipcode":"77540","county":{"code":"77","name":"Seine et Marne"},"coords":{"latitude":"0","longitude":"0"}},
{"name":"Beton Bazoches","zipcode":"77320","county":{"code":"77","name":"Seine et Marne"},"coords":{"latitude":"48.7","longitude":"3.25"}},
{"name":"Bezalles","zipcode":"77970","county":{"code":"77","name":"Seine et Marne"},"coords":{"latitude":"48.6833","longitude":"3.23333"}},
{"name":"Blandy","zipcode":"77115","county":{"code":"77","name":"Seine et Marne"},"coords":{"latitude":"48.5667","longitude":"2.78333"}},
{"name":"Blennes","zipcode":"77940","county":{"code":"77","name":"Seine et Marne"},"coords":{"latitude":"48.25","longitude":"3.01667"}},
{"name":"Boisdon","zipcode":"77970","county":{"code":"77","name":"Seine et Marne"},"coords":{"latitude":"48.6833","longitude":"3.21667"}},
{"name":"Bois le Roi","zipcode":"77590","county":{"code":"77","name":"Seine et Marne"},"coords":{"latitude":"48.4667","longitude":"2.7"}},
{"name":"Boissettes","zipcode":"77350","county":{"code":"77","name":"Seine et Marne"},"coords":{"latitude":"48.5167","longitude":"2.61667"}},
{"name":"Boissise la Bertrand","zipcode":"77350","county":{"code":"77","name":"Seine et Marne"},"coords":{"latitude":"48.5167","longitude":"2.58333"}},
{"name":"Boissise le Roi","zipcode":"77310","county":{"code":"77","name":"Seine et Marne"},"coords":{"latitude":"48.5333","longitude":"2.56667"}},
{"name":"Boissy aux Cailles","zipcode":"77760","county":{"code":"77","name":"Seine et Marne"},"coords":{"latitude":"48.3167","longitude":"2.5"}},
{"name":"Boissy le Ch\u00e2tel","zipcode":"77169","county":{"code":"77","name":"Seine et Marne"},"coords":{"latitude":"48.8167","longitude":"3.13333"}},
{"name":"Boitron","zipcode":"77750","county":{"code":"77","name":"Seine et Marne"},"coords":{"latitude":"48.9","longitude":"3.26667"}},
{"name":"Bombon","zipcode":"77720","county":{"code":"77","name":"Seine et Marne"},"coords":{"latitude":"48.5667","longitude":"2.85"}},
{"name":"Bougligny","zipcode":"77570","county":{"code":"77","name":"Seine et Marne"},"coords":{"latitude":"48.2","longitude":"2.65"}},
{"name":"Boulancourt","zipcode":"77760","county":{"code":"77","name":"Seine et Marne"},"coords":{"latitude":"48.25","longitude":"2.43333"}},
{"name":"Bouleurs","zipcode":"77580","county":{"code":"77","name":"Seine et Marne"},"coords":{"latitude":"48.8833","longitude":"2.91667"}},
{"name":"Bourron Marlotte","zipcode":"77780","county":{"code":"77","name":"Seine et Marne"},"coords":{"latitude":"48.3333","longitude":"2.7"}},
{"name":"Boutigny","zipcode":"77470","county":{"code":"77","name":"Seine et Marne"},"coords":{"latitude":"48.9167","longitude":"2.93333"}},
{"name":"Bransles","zipcode":"77620","county":{"code":"77","name":"Seine et Marne"},"coords":{"latitude":"48.15","longitude":"2.83333"}},
{"name":"Bray sur Seine","zipcode":"77480","county":{"code":"77","name":"Seine et Marne"},"coords":{"latitude":"48.4167","longitude":"3.23333"}},
{"name":"Br\u00e9au","zipcode":"77720","county":{"code":"77","name":"Seine et Marne"},"coords":{"latitude":"0","longitude":"0"}},
{"name":"Brie Comte Robert","zipcode":"77170","county":{"code":"77","name":"Seine et Marne"},"coords":{"latitude":"48.6833","longitude":"2.61667"}},
{"name":"Brou sur Chantereine","zipcode":"77177","county":{"code":"77","name":"Seine et Marne"},"coords":{"latitude":"48.8833","longitude":"2.63333"}},
{"name":"Burcy","zipcode":"77890","county":{"code":"77","name":"Seine et Marne"},"coords":{"latitude":"48.2333","longitude":"2.51667"}},
{"name":"Bussi\u00e8res","zipcode":"77750","county":{"code":"77","name":"Seine et Marne"},"coords":{"latitude":"48.9333","longitude":"3.23333"}},
{"name":"Bussy Saint Georges","zipcode":"77600","county":{"code":"77","name":"Seine et Marne"},"coords":{"latitude":"48.85","longitude":"2.7"}},
{"name":"Bussy Saint Martin","zipcode":"77600","county":{"code":"77","name":"Seine et Marne"},"coords":{"latitude":"48.85","longitude":"2.68333"}},
{"name":"Buthiers","zipcode":"77760","county":{"code":"77","name":"Seine et Marne"},"coords":{"latitude":"48.2833","longitude":"2.43333"}},
{"name":"Cannes \u00c9cluse","zipcode":"77130","county":{"code":"77","name":"Seine et Marne"},"coords":{"latitude":"0","longitude":"0"}},
{"name":"Carnetin","zipcode":"77400","county":{"code":"77","name":"Seine et Marne"},"coords":{"latitude":"48.9","longitude":"2.71667"}},
{"name":"C\u00e9ly","zipcode":"77930","county":{"code":"77","name":"Seine et Marne"},"coords":{"latitude":"0","longitude":"0"}},
{"name":"Cerneux","zipcode":"77320","county":{"code":"77","name":"Seine et Marne"},"coords":{"latitude":"48.6833","longitude":"3.35"}},
{"name":"Cesson","zipcode":"77240","county":{"code":"77","name":"Seine et Marne"},"coords":{"latitude":"48.5667","longitude":"2.6"}},
{"name":"Cessoy en Montois","zipcode":"77520","county":{"code":"77","name":"Seine et Marne"},"coords":{"latitude":"48.5","longitude":"3.15"}},
{"name":"Chailly en Bi\u00e8re","zipcode":"77930","county":{"code":"77","name":"Seine et Marne"},"coords":{"latitude":"48.4667","longitude":"2.58333"}},
{"name":"Chailly en Brie","zipcode":"77120","county":{"code":"77","name":"Seine et Marne"},"coords":{"latitude":"48.7833","longitude":"3.11667"}},
{"name":"Chaintreaux","zipcode":"77460","county":{"code":"77","name":"Seine et Marne"},"coords":{"latitude":"48.2","longitude":"2.81667"}},
{"name":"Chalautre la Grande","zipcode":"77171","county":{"code":"77","name":"Seine et Marne"},"coords":{"latitude":"48.5333","longitude":"3.45"}},
{"name":"Chalautre la Petite","zipcode":"77160","county":{"code":"77","name":"Seine et Marne"},"coords":{"latitude":"48.5333","longitude":"3.31667"}},
{"name":"Chalifert","zipcode":"77144","county":{"code":"77","name":"Seine et Marne"},"coords":{"latitude":"48.8833","longitude":"2.76667"}},
{"name":"Chalmaison","zipcode":"77650","county":{"code":"77","name":"Seine et Marne"},"coords":{"latitude":"48.4833","longitude":"3.25"}},
{"name":"Chambry","zipcode":"77910","county":{"code":"77","name":"Seine et Marne"},"coords":{"latitude":"49","longitude":"2.9"}},
{"name":"Chamigny","zipcode":"77260","county":{"code":"77","name":"Seine et Marne"},"coords":{"latitude":"48.9833","longitude":"3.15"}},
{"name":"Champagne sur Seine","zipcode":"77430","county":{"code":"77","name":"Seine et Marne"},"coords":{"latitude":"48.4","longitude":"2.8"}},
{"name":"Champcenest","zipcode":"77560","county":{"code":"77","name":"Seine et Marne"},"coords":{"latitude":"48.6667","longitude":"3.28333"}},
{"name":"Champdeuil","zipcode":"77390","county":{"code":"77","name":"Seine et Marne"},"coords":{"latitude":"48.6167","longitude":"2.73333"}},
{"name":"Champeaux","zipcode":"77720","county":{"code":"77","name":"Seine et Marne"},"coords":{"latitude":"48.5833","longitude":"2.8"}},
{"name":"Champs sur Marne","zipcode":"77420","county":{"code":"77","name":"Seine et Marne"},"coords":{"latitude":"48.85","longitude":"2.6"}},
{"name":"Changis sur Marne","zipcode":"77660","county":{"code":"77","name":"Seine et Marne"},"coords":{"latitude":"48.9667","longitude":"3.03333"}},
{"name":"Chanteloup en Brie","zipcode":"77600","county":{"code":"77","name":"Seine et Marne"},"coords":{"latitude":"0","longitude":"0"}},
{"name":"Charmentray","zipcode":"77410","county":{"code":"77","name":"Seine et Marne"},"coords":{"latitude":"48.95","longitude":"2.78333"}},
{"name":"Charny","zipcode":"77410","county":{"code":"77","name":"Seine et Marne"},"coords":{"latitude":"48.9667","longitude":"2.76667"}},
{"name":"Chartrettes","zipcode":"77590","county":{"code":"77","name":"Seine et Marne"},"coords":{"latitude":"48.4833","longitude":"2.7"}},
{"name":"Chartronges","zipcode":"77320","county":{"code":"77","name":"Seine et Marne"},"coords":{"latitude":"48.7333","longitude":"3.26667"}},
{"name":"Ch\u00e2teaubleau","zipcode":"77370","county":{"code":"77","name":"Seine et Marne"},"coords":{"latitude":"48.5833","longitude":"3.1"}},
{"name":"Ch\u00e2teau Landon","zipcode":"77570","county":{"code":"77","name":"Seine et Marne"},"coords":{"latitude":"48.15","longitude":"2.7"}},
{"name":"Ch\u00e2tenay sur Seine","zipcode":"77126","county":{"code":"77","name":"Seine et Marne"},"coords":{"latitude":"48.4167","longitude":"3.1"}},
{"name":"Ch\u00e2tenoy","zipcode":"77167","county":{"code":"77","name":"Seine et Marne"},"coords":{"latitude":"48.2333","longitude":"2.63333"}},
{"name":"Ch\u00e2tillon la Borde","zipcode":"77820","county":{"code":"77","name":"Seine et Marne"},"coords":{"latitude":"48.5333","longitude":"2.8"}},
{"name":"Ch\u00e2tres","zipcode":"77610","county":{"code":"77","name":"Seine et Marne"},"coords":{"latitude":"48.7","longitude":"2.81667"}},
{"name":"Chauconin Neufmontiers","zipcode":"77124","county":{"code":"77","name":"Seine et Marne"},"coords":{"latitude":"0","longitude":"0"}},
{"name":"Chauffry","zipcode":"77169","county":{"code":"77","name":"Seine et Marne"},"coords":{"latitude":"48.8167","longitude":"3.18333"}},
{"name":"Chaumes en Brie","zipcode":"77390","county":{"code":"77","name":"Seine et Marne"},"coords":{"latitude":"48.6667","longitude":"2.85"}},
{"name":"Chelles","zipcode":"77500","county":{"code":"77","name":"Seine et Marne"},"coords":{"latitude":"48.8833","longitude":"2.6"}},
{"name":"Chenoise","zipcode":"77160","county":{"code":"77","name":"Seine et Marne"},"coords":{"latitude":"48.6167","longitude":"3.2"}},
{"name":"Chenou","zipcode":"77570","county":{"code":"77","name":"Seine et Marne"},"coords":{"latitude":"48.1667","longitude":"2.65"}},
{"name":"Chessy","zipcode":"77700","county":{"code":"77","name":"Seine et Marne"},"coords":{"latitude":"48.8833","longitude":"2.76667"}},
{"name":"Chevrainvilliers","zipcode":"77760","county":{"code":"77","name":"Seine et Marne"},"coords":{"latitude":"48.25","longitude":"2.61667"}},
{"name":"Chevru","zipcode":"77320","county":{"code":"77","name":"Seine et Marne"},"coords":{"latitude":"48.7333","longitude":"3.2"}},
{"name":"Chevry Cossigny","zipcode":"77173","county":{"code":"77","name":"Seine et Marne"},"coords":{"latitude":"48.7167","longitude":"2.66667"}},
{"name":"Chevry en Sereine","zipcode":"77710","county":{"code":"77","name":"Seine et Marne"},"coords":{"latitude":"48.25","longitude":"2.95"}},
{"name":"Choisy en Brie","zipcode":"77320","county":{"code":"77","name":"Seine et Marne"},"coords":{"latitude":"48.7667","longitude":"3.21667"}},
{"name":"Citry","zipcode":"77730","county":{"code":"77","name":"Seine et Marne"},"coords":{"latitude":"48.9667","longitude":"3.25"}},
{"name":"Claye Souilly","zipcode":"77410","county":{"code":"77","name":"Seine et Marne"},"coords":{"latitude":"48.95","longitude":"2.7"}},
{"name":"Clos Fontaine","zipcode":"77370","county":{"code":"77","name":"Seine et Marne"},"coords":{"latitude":"0","longitude":"0"}},
{"name":"Cocherel","zipcode":"77440","county":{"code":"77","name":"Seine et Marne"},"coords":{"latitude":"49.0167","longitude":"3.1"}},
{"name":"Coll\u00e9gien","zipcode":"77090","county":{"code":"77","name":"Seine et Marne"},"coords":{"latitude":"48.8333","longitude":"2.66667"}},
{"name":"Combs la Ville","zipcode":"77380","county":{"code":"77","name":"Seine et Marne"},"coords":{"latitude":"48.6667","longitude":"2.56667"}},
{"name":"Compans","zipcode":"77290","county":{"code":"77","name":"Seine et Marne"},"coords":{"latitude":"49","longitude":"2.66667"}},
{"name":"Conches sur Gondoire","zipcode":"77600","county":{"code":"77","name":"Seine et Marne"},"coords":{"latitude":"0","longitude":"0"}},
{"name":"Cond\u00e9 Sainte Libiaire","zipcode":"77450","county":{"code":"77","name":"Seine et Marne"},"coords":{"latitude":"48.9","longitude":"2.83333"}},
{"name":"Congis sur Th\u00e9rouanne","zipcode":"77440","county":{"code":"77","name":"Seine et Marne"},"coords":{"latitude":"0","longitude":"0"}},
{"name":"Coubert","zipcode":"77170","county":{"code":"77","name":"Seine et Marne"},"coords":{"latitude":"48.6667","longitude":"2.7"}},
{"name":"Couilly Pont aux Dames","zipcode":"77860","county":{"code":"77","name":"Seine et Marne"},"coords":{"latitude":"48.8833","longitude":"2.86667"}},
{"name":"Coulombs en Valois","zipcode":"77840","county":{"code":"77","name":"Seine et Marne"},"coords":{"latitude":"0","longitude":"0"}},
{"name":"Coulommes","zipcode":"77580","county":{"code":"77","name":"Seine et Marne"},"coords":{"latitude":"48.9","longitude":"2.93333"}},
{"name":"Coulommiers","zipcode":"77120","county":{"code":"77","name":"Seine et Marne"},"coords":{"latitude":"48.8167","longitude":"3.08333"}},
{"name":"Coupvray","zipcode":"77700","county":{"code":"77","name":"Seine et Marne"},"coords":{"latitude":"48.9","longitude":"2.8"}},
{"name":"Courcelles en Bass\u00e9e","zipcode":"77126","county":{"code":"77","name":"Seine et Marne"},"coords":{"latitude":"0","longitude":"0"}},
{"name":"Courchamp","zipcode":"77560","county":{"code":"77","name":"Seine et Marne"},"coords":{"latitude":"48.6333","longitude":"3.28333"}},
{"name":"Courpalay","zipcode":"77540","county":{"code":"77","name":"Seine et Marne"},"coords":{"latitude":"48.65","longitude":"2.95"}},
{"name":"Courquetaine","zipcode":"77390","county":{"code":"77","name":"Seine et Marne"},"coords":{"latitude":"48.6833","longitude":"2.75"}},
{"name":"Courtacon","zipcode":"77560","county":{"code":"77","name":"Seine et Marne"},"coords":{"latitude":"48.7","longitude":"3.28333"}},
{"name":"Courtomer","zipcode":"77390","county":{"code":"77","name":"Seine et Marne"},"coords":{"latitude":"48.65","longitude":"2.9"}},
{"name":"Courtry","zipcode":"77181","county":{"code":"77","name":"Seine et Marne"},"coords":{"latitude":"48.5333","longitude":"2.76667"}},
{"name":"Couten\u00e7on","zipcode":"77154","county":{"code":"77","name":"Seine et Marne"},"coords":{"latitude":"48.4667","longitude":"3"}},
{"name":"Coutevroult","zipcode":"77580","county":{"code":"77","name":"Seine et Marne"},"coords":{"latitude":"48.8667","longitude":"2.85"}},
{"name":"Cr\u00e9cy la Chapelle","zipcode":"77580","county":{"code":"77","name":"Seine et Marne"},"coords":{"latitude":"0","longitude":"0"}},
{"name":"Cr\u00e9gy l\u00e8s Meaux","zipcode":"77124","county":{"code":"77","name":"Seine et Marne"},"coords":{"latitude":"48.9833","longitude":"2.88333"}},
{"name":"Cr\u00e8vecoeur en Brie","zipcode":"77610","county":{"code":"77","name":"Seine et Marne"},"coords":{"latitude":"48.75","longitude":"2.9"}},
{"name":"Crisenoy","zipcode":"77390","county":{"code":"77","name":"Seine et Marne"},"coords":{"latitude":"48.6","longitude":"2.75"}},
{"name":"Croissy Beaubourg","zipcode":"77183","county":{"code":"77","name":"Seine et Marne"},"coords":{"latitude":"48.8333","longitude":"2.66667"}},
{"name":"Crouy sur Ourcq","zipcode":"77840","county":{"code":"77","name":"Seine et Marne"},"coords":{"latitude":"49.0833","longitude":"3.06667"}},
{"name":"Cucharmoy","zipcode":"77160","county":{"code":"77","name":"Seine et Marne"},"coords":{"latitude":"48.5833","longitude":"3.18333"}},
{"name":"Cuisy","zipcode":"77165","county":{"code":"77","name":"Seine et Marne"},"coords":{"latitude":"49.0167","longitude":"2.76667"}},
{"name":"Dagny","zipcode":"77320","county":{"code":"77","name":"Seine et Marne"},"coords":{"latitude":"48.7167","longitude":"3.16667"}},
{"name":"Dammarie l\u00e8s Lys","zipcode":"77190","county":{"code":"77","name":"Seine et Marne"},"coords":{"latitude":"0","longitude":"0"}},
{"name":"Dammartin en Go\u00eble","zipcode":"77230","county":{"code":"77","name":"Seine et Marne"},"coords":{"latitude":"49.05","longitude":"2.68333"}},
{"name":"Dammartin sur Tigeaux","zipcode":"77163","county":{"code":"77","name":"Seine et Marne"},"coords":{"latitude":"48.8167","longitude":"2.93333"}},
{"name":"Dampmart","zipcode":"77400","county":{"code":"77","name":"Seine et Marne"},"coords":{"latitude":"48.8833","longitude":"2.73333"}},
{"name":"Darvault","zipcode":"77140","county":{"code":"77","name":"Seine et Marne"},"coords":{"latitude":"48.2667","longitude":"2.73333"}},
{"name":"Dhuisy","zipcode":"77440","county":{"code":"77","name":"Seine et Marne"},"coords":{"latitude":"49.0333","longitude":"3.16667"}},
{"name":"Diant","zipcode":"77940","county":{"code":"77","name":"Seine et Marne"},"coords":{"latitude":"48.2833","longitude":"2.98333"}},
{"name":"Donnemarie Dontilly","zipcode":"77520","county":{"code":"77","name":"Seine et Marne"},"coords":{"latitude":"0","longitude":"0"}},
{"name":"Dormelles","zipcode":"77130","county":{"code":"77","name":"Seine et Marne"},"coords":{"latitude":"48.3167","longitude":"2.9"}},
{"name":"Doue","zipcode":"77510","county":{"code":"77","name":"Seine et Marne"},"coords":{"latitude":"48.8667","longitude":"3.15"}},
{"name":"Douy la Ram\u00e9e","zipcode":"77139","county":{"code":"77","name":"Seine et Marne"},"coords":{"latitude":"49.0667","longitude":"2.88333"}},
{"name":"\u00c9chouboulains","zipcode":"77830","county":{"code":"77","name":"Seine et Marne"},"coords":{"latitude":"48.4667","longitude":"2.95"}},
{"name":"Ecuelles","zipcode":"77250","county":{"code":"77","name":"Seine et Marne"},"coords":{"latitude":"48.35","longitude":"2.81667"}},
{"name":"Egligny","zipcode":"77126","county":{"code":"77","name":"Seine et Marne"},"coords":{"latitude":"48.4333","longitude":"3.11667"}},
{"name":"Egreville","zipcode":"77620","county":{"code":"77","name":"Seine et Marne"},"coords":{"latitude":"48.1667","longitude":"2.86667"}},
{"name":"Emerainville","zipcode":"77184","county":{"code":"77","name":"Seine et Marne"},"coords":{"latitude":"48.8167","longitude":"2.61667"}},
{"name":"Episy","zipcode":"77250","county":{"code":"77","name":"Seine et Marne"},"coords":{"latitude":"48.3333","longitude":"2.78333"}},
{"name":"Esbly","zipcode":"77450","county":{"code":"77","name":"Seine et Marne"},"coords":{"latitude":"48.9","longitude":"2.81667"}},
{"name":"Esmans","zipcode":"77940","county":{"code":"77","name":"Seine et Marne"},"coords":{"latitude":"48.35","longitude":"2.96667"}},
{"name":"Etr\u00e9pilly","zipcode":"77139","county":{"code":"77","name":"Seine et Marne"},"coords":{"latitude":"49.0333","longitude":"2.93333"}},
{"name":"Everly","zipcode":"77157","county":{"code":"77","name":"Seine et Marne"},"coords":{"latitude":"48.4667","longitude":"3.25"}},
{"name":"Evry Gr\u00e9gy sur Yerre","zipcode":"77166","county":{"code":"77","name":"Seine et Marne"},"coords":{"latitude":"0","longitude":"0"}},
{"name":"F\u00e9ricy","zipcode":"77133","county":{"code":"77","name":"Seine et Marne"},"coords":{"latitude":"48.45","longitude":"2.8"}},
{"name":"F\u00e9rolles Attilly","zipcode":"77150","county":{"code":"77","name":"Seine et Marne"},"coords":{"latitude":"48.7333","longitude":"2.63333"}},
{"name":"Fa\u00ff l\u00e8s Nemours","zipcode":"77167","county":{"code":"77","name":"Seine et Marne"},"coords":{"latitude":"48.2333","longitude":"2.66667"}},
{"name":"Faremoutiers","zipcode":"77515","county":{"code":"77","name":"Seine et Marne"},"coords":{"latitude":"48.8","longitude":"3"}},
{"name":"Favi\u00e8res","zipcode":"77220","county":{"code":"77","name":"Seine et Marne"},"coords":{"latitude":"48.7667","longitude":"2.78333"}},
{"name":"Ferri\u00e8res en Brie","zipcode":"77164","county":{"code":"77","name":"Seine et Marne"},"coords":{"latitude":"0","longitude":"0"}},
{"name":"Flagy","zipcode":"77940","county":{"code":"77","name":"Seine et Marne"},"coords":{"latitude":"48.3167","longitude":"2.91667"}},
{"name":"Fleury en Bi\u00e8re","zipcode":"77930","county":{"code":"77","name":"Seine et Marne"},"coords":{"latitude":"48.45","longitude":"2.55"}},
{"name":"Fontainebleau","zipcode":"77300","county":{"code":"77","name":"Seine et Marne"},"coords":{"latitude":"48.4","longitude":"2.7"}},
{"name":"Fontaine Fourches","zipcode":"77480","county":{"code":"77","name":"Seine et Marne"},"coords":{"latitude":"48.4167","longitude":"3.38333"}},
{"name":"Fontaine le Port","zipcode":"77590","county":{"code":"77","name":"Seine et Marne"},"coords":{"latitude":"48.4833","longitude":"2.76667"}},
{"name":"Fontains","zipcode":"77370","county":{"code":"77","name":"Seine et Marne"},"coords":{"latitude":"48.5333","longitude":"3"}},
{"name":"Fontenailles","zipcode":"77370","county":{"code":"77","name":"Seine et Marne"},"coords":{"latitude":"48.55","longitude":"2.95"}},
{"name":"Fontenay Tr\u00e9signy","zipcode":"77610","county":{"code":"77","name":"Seine et Marne"},"coords":{"latitude":"48.7","longitude":"2.86667"}},
{"name":"Forfry","zipcode":"77165","county":{"code":"77","name":"Seine et Marne"},"coords":{"latitude":"49.05","longitude":"2.85"}},
{"name":"Forges","zipcode":"77130","county":{"code":"77","name":"Seine et Marne"},"coords":{"latitude":"48.4167","longitude":"2.95"}},
{"name":"Fouju","zipcode":"77390","county":{"code":"77","name":"Seine et Marne"},"coords":{"latitude":"48.5833","longitude":"2.78333"}},
{"name":"Fr\u00e9toy","zipcode":"77320","county":{"code":"77","name":"Seine et Marne"},"coords":{"latitude":"48.7","longitude":"3.2"}},
{"name":"Fresnes sur Marne","zipcode":"77410","county":{"code":"77","name":"Seine et Marne"},"coords":{"latitude":"48.9333","longitude":"2.73333"}},
{"name":"Fromont","zipcode":"77760","county":{"code":"77","name":"Seine et Marne"},"coords":{"latitude":"48.25","longitude":"2.5"}},
{"name":"Fublaines","zipcode":"77470","county":{"code":"77","name":"Seine et Marne"},"coords":{"latitude":"48.9333","longitude":"2.95"}},
{"name":"Garentreville","zipcode":"77890","county":{"code":"77","name":"Seine et Marne"},"coords":{"latitude":"48.2333","longitude":"2.55"}},
{"name":"Gastins","zipcode":"77370","county":{"code":"77","name":"Seine et Marne"},"coords":{"latitude":"48.6333","longitude":"3.01667"}},
{"name":"Germigny l'Ev\u00eaque","zipcode":"77910","county":{"code":"77","name":"Seine et Marne"},"coords":{"latitude":"49","longitude":"2.95"}},
{"name":"Germigny sous Coulombs","zipcode":"77840","county":{"code":"77","name":"Seine et Marne"},"coords":{"latitude":"49.0667","longitude":"3.16667"}},
{"name":"Gesvres le Chapitre","zipcode":"77165","county":{"code":"77","name":"Seine et Marne"},"coords":{"latitude":"49.05","longitude":"2.85"}},
{"name":"Giremoutiers","zipcode":"77120","county":{"code":"77","name":"Seine et Marne"},"coords":{"latitude":"48.85","longitude":"3.03333"}},
{"name":"Gironville","zipcode":"77890","county":{"code":"77","name":"Seine et Marne"},"coords":{"latitude":"48.1833","longitude":"2.53333"}},
{"name":"Gouaix","zipcode":"77114","county":{"code":"77","name":"Seine et Marne"},"coords":{"latitude":"48.4833","longitude":"3.28333"}},
{"name":"Gouvernes","zipcode":"77400","county":{"code":"77","name":"Seine et Marne"},"coords":{"latitude":"48.8667","longitude":"2.7"}},
{"name":"Grandpuits Bailly Carrois","zipcode":"77720","county":{"code":"77","name":"Seine et Marne"},"coords":{"latitude":"0","longitude":"0"}},
{"name":"Gravon","zipcode":"77118","county":{"code":"77","name":"Seine et Marne"},"coords":{"latitude":"48.4","longitude":"3.11667"}},
{"name":"Gressy","zipcode":"77410","county":{"code":"77","name":"Seine et Marne"},"coords":{"latitude":"48.9667","longitude":"2.66667"}},
{"name":"Gretz Armainvilliers","zipcode":"77220","county":{"code":"77","name":"Seine et Marne"},"coords":{"latitude":"48.7333","longitude":"2.73333"}},
{"name":"Grez sur Loing","zipcode":"77880","county":{"code":"77","name":"Seine et Marne"},"coords":{"latitude":"48.3167","longitude":"2.7"}},
{"name":"Grisy Suisnes","zipcode":"77166","county":{"code":"77","name":"Seine et Marne"},"coords":{"latitude":"48.6833","longitude":"2.66667"}},
{"name":"Grisy sur Seine","zipcode":"77480","county":{"code":"77","name":"Seine et Marne"},"coords":{"latitude":"48.4333","longitude":"3.31667"}},
{"name":"Gu\u00e9rard","zipcode":"77580","county":{"code":"77","name":"Seine et Marne"},"coords":{"latitude":"48.8167","longitude":"2.96667"}},
{"name":"Guercheville","zipcode":"77760","county":{"code":"77","name":"Seine et Marne"},"coords":{"latitude":"48.25","longitude":"2.55"}},
{"name":"Guermantes","zipcode":"77600","county":{"code":"77","name":"Seine et Marne"},"coords":{"latitude":"48.85","longitude":"2.7"}},
{"name":"Guignes","zipcode":"77390","county":{"code":"77","name":"Seine et Marne"},"coords":{"latitude":"0","longitude":"0"}},
{"name":"Gurcy le Ch\u00e2tel","zipcode":"77520","county":{"code":"77","name":"Seine et Marne"},"coords":{"latitude":"48.4667","longitude":"3.1"}},
{"name":"H\u00e9ricy","zipcode":"77850","county":{"code":"77","name":"Seine et Marne"},"coords":{"latitude":"48.45","longitude":"2.76667"}},
{"name":"Hautefeuille","zipcode":"77515","county":{"code":"77","name":"Seine et Marne"},"coords":{"latitude":"48.7667","longitude":"2.96667"}},
{"name":"Herm\u00e9","zipcode":"77114","county":{"code":"77","name":"Seine et Marne"},"coords":{"latitude":"48.4833","longitude":"3.33333"}},
{"name":"Hondevilliers","zipcode":"77510","county":{"code":"77","name":"Seine et Marne"},"coords":{"latitude":"48.9","longitude":"3.31667"}},
{"name":"Ichy","zipcode":"77890","county":{"code":"77","name":"Seine et Marne"},"coords":{"latitude":"48.2","longitude":"2.55"}},
{"name":"Isles l\u00e8s Villenoy","zipcode":"77450","county":{"code":"77","name":"Seine et Marne"},"coords":{"latitude":"48.9167","longitude":"2.83333"}},
{"name":"Isles les Meldeuses","zipcode":"77440","county":{"code":"77","name":"Seine et Marne"},"coords":{"latitude":"49","longitude":"3.01667"}},
{"name":"Iverny","zipcode":"77165","county":{"code":"77","name":"Seine et Marne"},"coords":{"latitude":"49","longitude":"2.78333"}},
{"name":"Jablines","zipcode":"77450","county":{"code":"77","name":"Seine et Marne"},"coords":{"latitude":"48.9167","longitude":"2.76667"}},
{"name":"Jaignes","zipcode":"77440","county":{"code":"77","name":"Seine et Marne"},"coords":{"latitude":"49","longitude":"3.05"}},
{"name":"Jaulnes","zipcode":"77480","county":{"code":"77","name":"Seine et Marne"},"coords":{"latitude":"48.4167","longitude":"3.26667"}},
{"name":"Jossigny","zipcode":"77600","county":{"code":"77","name":"Seine et Marne"},"coords":{"latitude":"48.8333","longitude":"2.75"}},
{"name":"Jouarre","zipcode":"77640","county":{"code":"77","name":"Seine et Marne"},"coords":{"latitude":"48.9333","longitude":"3.13333"}},
{"name":"Jouy le Ch\u00e2tel","zipcode":"77970","county":{"code":"77","name":"Seine et Marne"},"coords":{"latitude":"48.6667","longitude":"3.13333"}},
{"name":"Jouy sur Morin","zipcode":"77320","county":{"code":"77","name":"Seine et Marne"},"coords":{"latitude":"48.8","longitude":"3.26667"}},
{"name":"Juilly","zipcode":"77230","county":{"code":"77","name":"Seine et Marne"},"coords":{"latitude":"49.0167","longitude":"2.71667"}},
{"name":"Jutigny","zipcode":"77650","county":{"code":"77","name":"Seine et Marne"},"coords":{"latitude":"48.5","longitude":"3.23333"}},
{"name":"La Brosse Montceaux","zipcode":"77940","county":{"code":"77","name":"Seine et Marne"},"coords":{"latitude":"48.3333","longitude":"3.01667"}},
{"name":"La Celle sur Morin","zipcode":"77515","county":{"code":"77","name":"Seine et Marne"},"coords":{"latitude":"48.8167","longitude":"2.96667"}},
{"name":"La Chapelle Gauthier","zipcode":"77720","county":{"code":"77","name":"Seine et Marne"},"coords":{"latitude":"48.55","longitude":"2.9"}},
{"name":"La Chapelle Iger","zipcode":"77540","county":{"code":"77","name":"Seine et Marne"},"coords":{"latitude":"48.65","longitude":"2.98333"}},
{"name":"La Chapelle la Reine","zipcode":"77760","county":{"code":"77","name":"Seine et Marne"},"coords":{"latitude":"48.3167","longitude":"2.58333"}},
{"name":"La Chapelle Moutils","zipcode":"77320","county":{"code":"77","name":"Seine et Marne"},"coords":{"latitude":"0","longitude":"0"}},
{"name":"La Chapelle Rablais","zipcode":"77370","county":{"code":"77","name":"Seine et Marne"},"coords":{"latitude":"48.5167","longitude":"2.96667"}},
{"name":"La Chapelle Saint Sulpice","zipcode":"77160","county":{"code":"77","name":"Seine et Marne"},"coords":{"latitude":"48.55","longitude":"3.18333"}},
{"name":"La Croix en Brie","zipcode":"77370","county":{"code":"77","name":"Seine et Marne"},"coords":{"latitude":"48.5833","longitude":"3.06667"}},
{"name":"La Fert\u00e9 Gaucher","zipcode":"77320","county":{"code":"77","name":"Seine et Marne"},"coords":{"latitude":"48.7833","longitude":"3.3"}},
{"name":"La Fert\u00e9 sous Jouarre","zipcode":"77260","county":{"code":"77","name":"Seine et Marne"},"coords":{"latitude":"48.95","longitude":"3.13333"}},
{"name":"La Genevraye","zipcode":"77690","county":{"code":"77","name":"Seine et Marne"},"coords":{"latitude":"48.3167","longitude":"2.75"}},
{"name":"La Grande Paroisse","zipcode":"77130","county":{"code":"77","name":"Seine et Marne"},"coords":{"latitude":"48.3833","longitude":"2.9"}},
{"name":"La Haute Maison","zipcode":"77580","county":{"code":"77","name":"Seine et Marne"},"coords":{"latitude":"48.8833","longitude":"3"}},
{"name":"La Houssaye en Brie","zipcode":"77610","county":{"code":"77","name":"Seine et Marne"},"coords":{"latitude":"48.75","longitude":"2.86667"}},
{"name":"La Madeleine sur Loing","zipcode":"77570","county":{"code":"77","name":"Seine et Marne"},"coords":{"latitude":"48.2","longitude":"2.7031"}},
{"name":"La Rochette","zipcode":"77000","county":{"code":"77","name":"Seine et Marne"},"coords":{"latitude":"48.5","longitude":"2.66667"}},
{"name":"La Tombe","zipcode":"77130","county":{"code":"77","name":"Seine et Marne"},"coords":{"latitude":"48.3833","longitude":"3.08333"}},
{"name":"La Tr\u00e9toire","zipcode":"77510","county":{"code":"77","name":"Seine et Marne"},"coords":{"latitude":"48.8833","longitude":"3.25"}},
{"name":"L\u00e9chelle","zipcode":"77171","county":{"code":"77","name":"Seine et Marne"},"coords":{"latitude":"48.5833","longitude":"3.38333"}},
{"name":"L\u00e9signy","zipcode":"77150","county":{"code":"77","name":"Seine et Marne"},"coords":{"latitude":"48.7333","longitude":"2.61667"}},
{"name":"Lagny sur Marne","zipcode":"77400","county":{"code":"77","name":"Seine et Marne"},"coords":{"latitude":"48.8667","longitude":"2.71667"}},
{"name":"Larchant","zipcode":"77760","county":{"code":"77","name":"Seine et Marne"},"coords":{"latitude":"48.2833","longitude":"2.6"}},
{"name":"Laval en Brie","zipcode":"77148","county":{"code":"77","name":"Seine et Marne"},"coords":{"latitude":"48.4167","longitude":"2.98333"}},
{"name":"Le Ch\u00e2telet en Brie","zipcode":"77820","county":{"code":"77","name":"Seine et Marne"},"coords":{"latitude":"48.5","longitude":"2.8"}},
{"name":"Le M\u00e9e sur Seine","zipcode":"77350","county":{"code":"77","name":"Seine et Marne"},"coords":{"latitude":"48.5333","longitude":"2.63333"}},
{"name":"Le Mesnil Amelot","zipcode":"77990","county":{"code":"77","name":"Seine et Marne"},"coords":{"latitude":"49.0167","longitude":"2.6"}},
{"name":"Le Pin","zipcode":"77181","county":{"code":"77","name":"Seine et Marne"},"coords":{"latitude":"48.9167","longitude":"2.61667"}},
{"name":"Le Plessis aux Bois","zipcode":"77165","county":{"code":"77","name":"Seine et Marne"},"coords":{"latitude":"49","longitude":"2.76667"}},
{"name":"Le Plessis Feu Aussoux","zipcode":"77540","county":{"code":"77","name":"Seine et Marne"},"coords":{"latitude":"48.7167","longitude":"3.03333"}},
{"name":"Le Plessis l'Ev\u00eaque","zipcode":"77165","county":{"code":"77","name":"Seine et Marne"},"coords":{"latitude":"49","longitude":"2.78333"}},
{"name":"Le Plessis Placy","zipcode":"77440","county":{"code":"77","name":"Seine et Marne"},"coords":{"latitude":"49.0667","longitude":"3"}},
{"name":"Le Vaudou\u00e9","zipcode":"77123","county":{"code":"77","name":"Seine et Marne"},"coords":{"latitude":"48.35","longitude":"2.51667"}},
{"name":"Les Chapelles Bourbon","zipcode":"77610","county":{"code":"77","name":"Seine et Marne"},"coords":{"latitude":"48.7333","longitude":"2.83333"}},
{"name":"Les Ecrennes","zipcode":"77820","county":{"code":"77","name":"Seine et Marne"},"coords":{"latitude":"48.5","longitude":"2.85"}},
{"name":"Les Mar\u00eats","zipcode":"77560","county":{"code":"77","name":"Seine et Marne"},"coords":{"latitude":"48.6667","longitude":"3.31667"}},
{"name":"Les Ormes sur Voulzie","zipcode":"77134","county":{"code":"77","name":"Seine et Marne"},"coords":{"latitude":"48.4667","longitude":"3.23333"}},
{"name":"Lescherolles","zipcode":"77320","county":{"code":"77","name":"Seine et Marne"},"coords":{"latitude":"48.75","longitude":"3.33333"}},
{"name":"Lesches","zipcode":"77450","county":{"code":"77","name":"Seine et Marne"},"coords":{"latitude":"48.9","longitude":"2.78333"}},
{"name":"Leudon en Brie","zipcode":"77320","county":{"code":"77","name":"Seine et Marne"},"coords":{"latitude":"48.7333","longitude":"3.26667"}},
{"name":"Lieusaint","zipcode":"77127","county":{"code":"77","name":"Seine et Marne"},"coords":{"latitude":"48.6333","longitude":"2.55"}},
{"name":"Limoges Fourches","zipcode":"77550","county":{"code":"77","name":"Seine et Marne"},"coords":{"latitude":"48.6167","longitude":"2.66667"}},
{"name":"Lissy","zipcode":"77550","county":{"code":"77","name":"Seine et Marne"},"coords":{"latitude":"48.6167","longitude":"2.68333"}},
{"name":"Liverdy en Brie","zipcode":"77220","county":{"code":"77","name":"Seine et Marne"},"coords":{"latitude":"48.7","longitude":"2.76667"}},
{"name":"Livry sur Seine","zipcode":"77000","county":{"code":"77","name":"Seine et Marne"},"coords":{"latitude":"48.5167","longitude":"2.68333"}},
{"name":"Lizines","zipcode":"77650","county":{"code":"77","name":"Seine et Marne"},"coords":{"latitude":"48.5333","longitude":"3.18333"}},
{"name":"Lizy sur Ourcq","zipcode":"77440","county":{"code":"77","name":"Seine et Marne"},"coords":{"latitude":"49.0167","longitude":"3.03333"}},
{"name":"Lognes","zipcode":"77185","county":{"code":"77","name":"Seine et Marne"},"coords":{"latitude":"48.8333","longitude":"2.61667"}},
{"name":"Longperrier","zipcode":"77230","county":{"code":"77","name":"Seine et Marne"},"coords":{"latitude":"49.05","longitude":"2.66667"}},
{"name":"Longueville","zipcode":"77650","county":{"code":"77","name":"Seine et Marne"},"coords":{"latitude":"48.5167","longitude":"3.25"}},
{"name":"Lorrez le Bocage Pr\u00e9aux","zipcode":"77710","county":{"code":"77","name":"Seine et Marne"},"coords":{"latitude":"0","longitude":"0"}},
{"name":"Louan Villegruis Fontaine","zipcode":"77560","county":{"code":"77","name":"Seine et Marne"},"coords":{"latitude":"0","longitude":"0"}},
{"name":"Luisetaines","zipcode":"77520","county":{"code":"77","name":"Seine et Marne"},"coords":{"latitude":"48.4667","longitude":"3.18333"}},
{"name":"Lumigny Nesles Ormeaux","zipcode":"77540","county":{"code":"77","name":"Seine et Marne"},"coords":{"latitude":"0","longitude":"0"}},
{"name":"Luzancy","zipcode":"77138","county":{"code":"77","name":"Seine et Marne"},"coords":{"latitude":"48.9667","longitude":"3.18333"}},
{"name":"M\u00e9ry sur Marne","zipcode":"77730","county":{"code":"77","name":"Seine et Marne"},"coords":{"latitude":"48.9667","longitude":"3.2"}},
{"name":"Machault","zipcode":"77133","county":{"code":"77","name":"Seine et Marne"},"coords":{"latitude":"48.45","longitude":"2.83333"}},
{"name":"Magny le Hongre","zipcode":"77700","county":{"code":"77","name":"Seine et Marne"},"coords":{"latitude":"48.8667","longitude":"2.81667"}},
{"name":"Maincy","zipcode":"77950","county":{"code":"77","name":"Seine et Marne"},"coords":{"latitude":"48.55","longitude":"2.7"}},
{"name":"Maisoncelles en Brie","zipcode":"77580","county":{"code":"77","name":"Seine et Marne"},"coords":{"latitude":"48.8667","longitude":"3"}},
{"name":"Maisoncelles en G\u00e2tinais","zipcode":"77570","county":{"code":"77","name":"Seine et Marne"},"coords":{"latitude":"48.1833","longitude":"2.63333"}},
{"name":"Maison Rouge","zipcode":"77370","county":{"code":"77","name":"Seine et Marne"},"coords":{"latitude":"48.5583","longitude":"3.15"}},
{"name":"March\u00e9moret","zipcode":"77230","county":{"code":"77","name":"Seine et Marne"},"coords":{"latitude":"49.05","longitude":"2.76667"}},
{"name":"Marcilly","zipcode":"77139","county":{"code":"77","name":"Seine et Marne"},"coords":{"latitude":"49.0333","longitude":"2.88333"}},
{"name":"Mareuil l\u00e8s Meaux","zipcode":"77100","county":{"code":"77","name":"Seine et Marne"},"coords":{"latitude":"48.9333","longitude":"2.86667"}},
{"name":"Marles en Brie","zipcode":"77610","county":{"code":"77","name":"Seine et Marne"},"coords":{"latitude":"48.7167","longitude":"2.88333"}},
{"name":"Marolles en Brie","zipcode":"77120","county":{"code":"77","name":"Seine et Marne"},"coords":{"latitude":"48.7833","longitude":"3.16667"}},
{"name":"Marolles sur Seine","zipcode":"77130","county":{"code":"77","name":"Seine et Marne"},"coords":{"latitude":"48.3833","longitude":"3.03333"}},
{"name":"Mary sur Marne","zipcode":"77440","county":{"code":"77","name":"Seine et Marne"},"coords":{"latitude":"49.0167","longitude":"3.03333"}},
{"name":"Mauperthuis","zipcode":"77120","county":{"code":"77","name":"Seine et Marne"},"coords":{"latitude":"48.7667","longitude":"3.03333"}},
{"name":"Mauregard","zipcode":"77990","county":{"code":"77","name":"Seine et Marne"},"coords":{"latitude":"49.0333","longitude":"2.58333"}},
{"name":"May en Multien","zipcode":"77145","county":{"code":"77","name":"Seine et Marne"},"coords":{"latitude":"49.0667","longitude":"3.03333"}},
{"name":"Meaux","zipcode":"77100","county":{"code":"77","name":"Seine et Marne"},"coords":{"latitude":"48.95","longitude":"2.86667"}},
{"name":"Meigneux","zipcode":"77520","county":{"code":"77","name":"Seine et Marne"},"coords":{"latitude":"48.5167","longitude":"3.1"}},
{"name":"Meilleray","zipcode":"77320","county":{"code":"77","name":"Seine et Marne"},"coords":{"latitude":"48.7833","longitude":"3.41667"}},
{"name":"Melun","zipcode":"77000","county":{"code":"77","name":"Seine et Marne"},"coords":{"latitude":"48.5333","longitude":"2.66667"}},
{"name":"Melz sur Seine","zipcode":"77171","county":{"code":"77","name":"Seine et Marne"},"coords":{"latitude":"48.5","longitude":"3.41667"}},
{"name":"Messy","zipcode":"77410","county":{"code":"77","name":"Seine et Marne"},"coords":{"latitude":"48.9667","longitude":"2.7"}},
{"name":"Misy sur Yonne","zipcode":"77130","county":{"code":"77","name":"Seine et Marne"},"coords":{"latitude":"48.3667","longitude":"3.08333"}},
{"name":"Mitry Mory","zipcode":"77290","county":{"code":"77","name":"Seine et Marne"},"coords":{"latitude":"48.9833","longitude":"2.61667"}},
{"name":"Moisenay","zipcode":"77950","county":{"code":"77","name":"Seine et Marne"},"coords":{"latitude":"48.55","longitude":"2.73333"}},
{"name":"Moissy Cramayel","zipcode":"77550","county":{"code":"77","name":"Seine et Marne"},"coords":{"latitude":"48.6167","longitude":"2.6"}},
{"name":"Mondreville","zipcode":"77570","county":{"code":"77","name":"Seine et Marne"},"coords":{"latitude":"0","longitude":"0"}},
{"name":"Mons en Montois","zipcode":"77520","county":{"code":"77","name":"Seine et Marne"},"coords":{"latitude":"48.4833","longitude":"3.15"}},
{"name":"Mont\u00e9vrain","zipcode":"77144","county":{"code":"77","name":"Seine et Marne"},"coords":{"latitude":"48.8667","longitude":"2.75"}},
{"name":"Montarlot","zipcode":"77250","county":{"code":"77","name":"Seine et Marne"},"coords":{"latitude":"48.35","longitude":"2.85"}},
{"name":"Montceaux l\u00e8s Meaux","zipcode":"77470","county":{"code":"77","name":"Seine et Marne"},"coords":{"latitude":"48.95","longitude":"2.98333"}},
{"name":"Montceaux l\u00e8s Provins","zipcode":"77151","county":{"code":"77","name":"Seine et Marne"},"coords":{"latitude":"48.6833","longitude":"3.43333"}},
{"name":"Montcourt Fromonville","zipcode":"77140","county":{"code":"77","name":"Seine et Marne"},"coords":{"latitude":"48.3","longitude":"2.7"}},
{"name":"Montdauphin","zipcode":"77320","county":{"code":"77","name":"Seine et Marne"},"coords":{"latitude":"48.85","longitude":"3.43333"}},
{"name":"Montenils","zipcode":"77320","county":{"code":"77","name":"Seine et Marne"},"coords":{"latitude":"48.85","longitude":"3.48333"}},
{"name":"Montereau Fault Yonne","zipcode":"77130","county":{"code":"77","name":"Seine et Marne"},"coords":{"latitude":"48.3833","longitude":"2.95"}},
{"name":"Montereau sur le Jard","zipcode":"77950","county":{"code":"77","name":"Seine et Marne"},"coords":{"latitude":"48.5833","longitude":"2.66667"}},
{"name":"Montg\u00e9 en Go\u00eble","zipcode":"77230","county":{"code":"77","name":"Seine et Marne"},"coords":{"latitude":"0","longitude":"0"}},
{"name":"Monthyon","zipcode":"77122","county":{"code":"77","name":"Seine et Marne"},"coords":{"latitude":"49.0167","longitude":"2.83333"}},
{"name":"Montigny le Guesdier","zipcode":"77480","county":{"code":"77","name":"Seine et Marne"},"coords":{"latitude":"48.3833","longitude":"3.25"}},
{"name":"Montigny Lencoup","zipcode":"77520","county":{"code":"77","name":"Seine et Marne"},"coords":{"latitude":"48.45","longitude":"3.05"}},
{"name":"Montigny sur Loing","zipcode":"77690","county":{"code":"77","name":"Seine et Marne"},"coords":{"latitude":"48.3333","longitude":"2.73333"}},
{"name":"Montmachoux","zipcode":"77940","county":{"code":"77","name":"Seine et Marne"},"coords":{"latitude":"48.3167","longitude":"2.98333"}},
{"name":"Montolivet","zipcode":"77320","county":{"code":"77","name":"Seine et Marne"},"coords":{"latitude":"48.8333","longitude":"3.43333"}},
{"name":"Montry","zipcode":"77450","county":{"code":"77","name":"Seine et Marne"},"coords":{"latitude":"48.8833","longitude":"2.83333"}},
{"name":"Moret sur Loing","zipcode":"77250","county":{"code":"77","name":"Seine et Marne"},"coords":{"latitude":"48.3667","longitude":"2.81667"}},
{"name":"Mormant","zipcode":"77720","county":{"code":"77","name":"Seine et Marne"},"coords":{"latitude":"48.6","longitude":"2.88333"}},
{"name":"Mortcerf","zipcode":"77163","county":{"code":"77","name":"Seine et Marne"},"coords":{"latitude":"48.7833","longitude":"2.91667"}},
{"name":"Mortery","zipcode":"77160","county":{"code":"77","name":"Seine et Marne"},"coords":{"latitude":"48.6","longitude":"3.25"}},
{"name":"Mouroux","zipcode":"77120","county":{"code":"77","name":"Seine et Marne"},"coords":{"latitude":"48.8167","longitude":"3.03333"}},
{"name":"Mousseaux l\u00e8s Bray","zipcode":"77480","county":{"code":"77","name":"Seine et Marne"},"coords":{"latitude":"48.4167","longitude":"3.23333"}},
{"name":"Moussy le Neuf","zipcode":"77230","county":{"code":"77","name":"Seine et Marne"},"coords":{"latitude":"49.0667","longitude":"2.6"}},
{"name":"Moussy le Vieux","zipcode":"77230","county":{"code":"77","name":"Seine et Marne"},"coords":{"latitude":"49.05","longitude":"2.61667"}},
{"name":"Mouy sur Seine","zipcode":"77480","county":{"code":"77","name":"Seine et Marne"},"coords":{"latitude":"48.4167","longitude":"3.23333"}},
{"name":"Nandy","zipcode":"77176","county":{"code":"77","name":"Seine et Marne"},"coords":{"latitude":"48.5833","longitude":"2.56667"}},
{"name":"Nangis","zipcode":"77370","county":{"code":"77","name":"Seine et Marne"},"coords":{"latitude":"48.55","longitude":"3"}},
{"name":"Nanteau sur Essonne","zipcode":"77760","county":{"code":"77","name":"Seine et Marne"},"coords":{"latitude":"48.3167","longitude":"2.41667"}},
{"name":"Nanteau sur Lunain","zipcode":"77710","county":{"code":"77","name":"Seine et Marne"},"coords":{"latitude":"48.25","longitude":"2.81667"}},
{"name":"Nanteuil l\u00e8s Meaux","zipcode":"77100","county":{"code":"77","name":"Seine et Marne"},"coords":{"latitude":"48.9333","longitude":"2.9"}},
{"name":"Nanteuil sur Marne","zipcode":"77730","county":{"code":"77","name":"Seine et Marne"},"coords":{"latitude":"48.9833","longitude":"3.21667"}},
{"name":"Nantouillet","zipcode":"77230","county":{"code":"77","name":"Seine et Marne"},"coords":{"latitude":"49","longitude":"2.7"}},
{"name":"Nemours","zipcode":"77140","county":{"code":"77","name":"Seine et Marne"},"coords":{"latitude":"48.2667","longitude":"2.7"}},
{"name":"Neufmoutiers en Brie","zipcode":"77610","county":{"code":"77","name":"Seine et Marne"},"coords":{"latitude":"48.7667","longitude":"2.83333"}},
{"name":"Noisiel","zipcode":"77186","county":{"code":"77","name":"Seine et Marne"},"coords":{"latitude":"48.85","longitude":"2.63333"}},
{"name":"Noisy Rudignon","zipcode":"77940","county":{"code":"77","name":"Seine et Marne"},"coords":{"latitude":"48.3333","longitude":"2.93333"}},
{"name":"Noisy sur Ecole","zipcode":"77123","county":{"code":"77","name":"Seine et Marne"},"coords":{"latitude":"48.3667","longitude":"2.5"}},
{"name":"Nonville","zipcode":"77140","county":{"code":"77","name":"Seine et Marne"},"coords":{"latitude":"48.2833","longitude":"2.78333"}},
{"name":"Noyen sur Seine","zipcode":"77114","county":{"code":"77","name":"Seine et Marne"},"coords":{"latitude":"48.45","longitude":"3.35"}},
{"name":"Obsonville","zipcode":"77890","county":{"code":"77","name":"Seine et Marne"},"coords":{"latitude":"48.2167","longitude":"2.56667"}},
{"name":"Ocquerre","zipcode":"77440","county":{"code":"77","name":"Seine et Marne"},"coords":{"latitude":"49.0333","longitude":"3.06667"}},
{"name":"Oissery","zipcode":"77178","county":{"code":"77","name":"Seine et Marne"},"coords":{"latitude":"49.0667","longitude":"2.81667"}},
{"name":"Orly sur Morin","zipcode":"77750","county":{"code":"77","name":"Seine et Marne"},"coords":{"latitude":"48.9","longitude":"3.23333"}},
{"name":"Ormesson","zipcode":"77167","county":{"code":"77","name":"Seine et Marne"},"coords":{"latitude":"48.2333","longitude":"2.65"}},
{"name":"Othis","zipcode":"77280","county":{"code":"77","name":"Seine et Marne"},"coords":{"latitude":"49.0833","longitude":"2.68333"}},
{"name":"Ozoir la Ferri\u00e8re","zipcode":"77330","county":{"code":"77","name":"Seine et Marne"},"coords":{"latitude":"48.7667","longitude":"2.66667"}},
{"name":"Ozouer le Voulgis","zipcode":"77390","county":{"code":"77","name":"Seine et Marne"},"coords":{"latitude":"48.65","longitude":"2.76667"}},
{"name":"P\u00e9cy","zipcode":"77970","county":{"code":"77","name":"Seine et Marne"},"coords":{"latitude":"48.65","longitude":"3.08333"}},
{"name":"P\u00e9zarches","zipcode":"77131","county":{"code":"77","name":"Seine et Marne"},"coords":{"latitude":"48.7333","longitude":"2.98333"}},
{"name":"Paley","zipcode":"77710","county":{"code":"77","name":"Seine et Marne"},"coords":{"latitude":"48.2333","longitude":"2.85"}},
{"name":"Pamfou","zipcode":"77830","county":{"code":"77","name":"Seine et Marne"},"coords":{"latitude":"48.45","longitude":"2.86667"}},
{"name":"Paroy","zipcode":"77520","county":{"code":"77","name":"Seine et Marne"},"coords":{"latitude":"48.4833","longitude":"3.2"}},
{"name":"Passy sur Seine","zipcode":"77480","county":{"code":"77","name":"Seine et Marne"},"coords":{"latitude":"48.4167","longitude":"3.35"}},
{"name":"Penchard","zipcode":"77124","county":{"code":"77","name":"Seine et Marne"},"coords":{"latitude":"48.9833","longitude":"2.86667"}},
{"name":"Perthes","zipcode":"77930","county":{"code":"77","name":"Seine et Marne"},"coords":{"latitude":"0","longitude":"0"}},
{"name":"Pierre Lev\u00e9e","zipcode":"77580","county":{"code":"77","name":"Seine et Marne"},"coords":{"latitude":"48.9","longitude":"3.03333"}},
{"name":"Poigny","zipcode":"77160","county":{"code":"77","name":"Seine et Marne"},"coords":{"latitude":"48.5333","longitude":"3.28333"}},
{"name":"Poincy","zipcode":"77470","county":{"code":"77","name":"Seine et Marne"},"coords":{"latitude":"48.9667","longitude":"2.93333"}},
{"name":"Poligny","zipcode":"77167","county":{"code":"77","name":"Seine et Marne"},"coords":{"latitude":"48.2167","longitude":"2.75"}},
{"name":"Pommeuse","zipcode":"77515","county":{"code":"77","name":"Seine et Marne"},"coords":{"latitude":"48.8167","longitude":"3.01667"}},
{"name":"Pomponne","zipcode":"77400","county":{"code":"77","name":"Seine et Marne"},"coords":{"latitude":"48.8833","longitude":"2.68333"}},
{"name":"Pontault Combault","zipcode":"77340","county":{"code":"77","name":"Seine et Marne"},"coords":{"latitude":"0","longitude":"0"}},
{"name":"Pontcarr\u00e9","zipcode":"77135","county":{"code":"77","name":"Seine et Marne"},"coords":{"latitude":"48.8","longitude":"2.7"}},
{"name":"Pr\u00e9cy sur Marne","zipcode":"77410","county":{"code":"77","name":"Seine et Marne"},"coords":{"latitude":"48.9333","longitude":"2.78333"}},
{"name":"Presles en Brie","zipcode":"77220","county":{"code":"77","name":"Seine et Marne"},"coords":{"latitude":"48.7167","longitude":"2.75"}},
{"name":"Pringy","zipcode":"77310","county":{"code":"77","name":"Seine et Marne"},"coords":{"latitude":"48.5167","longitude":"2.56667"}},
{"name":"Provins","zipcode":"77160","county":{"code":"77","name":"Seine et Marne"},"coords":{"latitude":"48.55","longitude":"3.3"}},
{"name":"Puisieux","zipcode":"77139","county":{"code":"77","name":"Seine et Marne"},"coords":{"latitude":"49.0667","longitude":"2.91667"}},
{"name":"Quiers","zipcode":"77720","county":{"code":"77","name":"Seine et Marne"},"coords":{"latitude":"48.6","longitude":"2.96667"}},
{"name":"Quincy Voisins","zipcode":"77860","county":{"code":"77","name":"Seine et Marne"},"coords":{"latitude":"48.9","longitude":"2.88333"}},
{"name":"R\u00e9au","zipcode":"77550","county":{"code":"77","name":"Seine et Marne"},"coords":{"latitude":"48.6","longitude":"2.61667"}},
{"name":"Rampillon","zipcode":"77370","county":{"code":"77","name":"Seine et Marne"},"coords":{"latitude":"48.55","longitude":"3.06667"}},
{"name":"Rebais","zipcode":"77510","county":{"code":"77","name":"Seine et Marne"},"coords":{"latitude":"48.85","longitude":"3.23333"}},
{"name":"Recloses","zipcode":"77760","county":{"code":"77","name":"Seine et Marne"},"coords":{"latitude":"48.35","longitude":"2.63333"}},
{"name":"Remauville","zipcode":"77710","county":{"code":"77","name":"Seine et Marne"},"coords":{"latitude":"48.2167","longitude":"2.81667"}},
{"name":"Reuil en Brie","zipcode":"77260","county":{"code":"77","name":"Seine et Marne"},"coords":{"latitude":"48.9667","longitude":"3.15"}},
{"name":"Roissy en Brie","zipcode":"77680","county":{"code":"77","name":"Seine et Marne"},"coords":{"latitude":"48.8","longitude":"2.65"}},
{"name":"Rouilly","zipcode":"77160","county":{"code":"77","name":"Seine et Marne"},"coords":{"latitude":"48.5833","longitude":"3.26667"}},
{"name":"Rouvres","zipcode":"77230","county":{"code":"77","name":"Seine et Marne"},"coords":{"latitude":"49.0667","longitude":"2.71667"}},
{"name":"Rozay en Brie","zipcode":"77540","county":{"code":"77","name":"Seine et Marne"},"coords":{"latitude":"48.6833","longitude":"2.96667"}},
{"name":"Rubelles","zipcode":"77950","county":{"code":"77","name":"Seine et Marne"},"coords":{"latitude":"48.5667","longitude":"2.68333"}},
{"name":"Rumont","zipcode":"77760","county":{"code":"77","name":"Seine et Marne"},"coords":{"latitude":"48.2667","longitude":"2.5"}},
{"name":"Rup\u00e9reux","zipcode":"77560","county":{"code":"77","name":"Seine et Marne"},"coords":{"latitude":"48.6333","longitude":"3.33333"}},
{"name":"Sa\u00e2cy sur Marne","zipcode":"77730","county":{"code":"77","name":"Seine et Marne"},"coords":{"latitude":"48.9667","longitude":"3.21667"}},
{"name":"Sablonni\u00e8res","zipcode":"77510","county":{"code":"77","name":"Seine et Marne"},"coords":{"latitude":"48.8667","longitude":"3.28333"}},
{"name":"Saint Ange le Viel","zipcode":"77710","county":{"code":"77","name":"Seine et Marne"},"coords":{"latitude":"0","longitude":"0"}},
{"name":"Saint Augustin","zipcode":"77515","county":{"code":"77","name":"Seine et Marne"},"coords":{"latitude":"48.7833","longitude":"3.03333"}},
{"name":"Saint Barth\u00e9lemy","zipcode":"77320","county":{"code":"77","name":"Seine et Marne"},"coords":{"latitude":"48.8167","longitude":"3.36667"}},
{"name":"Saint Brice","zipcode":"77160","county":{"code":"77","name":"Seine et Marne"},"coords":{"latitude":"48.5667","longitude":"3.31667"}},
{"name":"Saint Cyr sur Morin","zipcode":"77750","county":{"code":"77","name":"Seine et Marne"},"coords":{"latitude":"48.9167","longitude":"3.18333"}},
{"name":"Saint Denis l\u00e8s Rebais","zipcode":"77510","county":{"code":"77","name":"Seine et Marne"},"coords":{"latitude":"48.8333","longitude":"3.21667"}},
{"name":"Sainte Aulde","zipcode":"77260","county":{"code":"77","name":"Seine et Marne"},"coords":{"latitude":"0","longitude":"0"}},
{"name":"Sainte Colombe","zipcode":"77650","county":{"code":"77","name":"Seine et Marne"},"coords":{"latitude":"48.5333","longitude":"3.25"}},
{"name":"Saint Fargeau Ponthierry","zipcode":"77310","county":{"code":"77","name":"Seine et Marne"},"coords":{"latitude":"48","longitude":"2"}},
{"name":"Saint Fiacre","zipcode":"77470","county":{"code":"77","name":"Seine et Marne"},"coords":{"latitude":"48.9167","longitude":"2.96667"}},
{"name":"Saint Germain Laval","zipcode":"77130","county":{"code":"77","name":"Seine et Marne"},"coords":{"latitude":"48.4","longitude":"3"}},
{"name":"Saint Germain Laxis","zipcode":"77950","county":{"code":"77","name":"Seine et Marne"},"coords":{"latitude":"48.5833","longitude":"2.7"}},
{"name":"Saint Germain sous Doue","zipcode":"77169","county":{"code":"77","name":"Seine et Marne"},"coords":{"latitude":"48.85","longitude":"3.15"}},
{"name":"Saint Germain sur Ecole","zipcode":"77930","county":{"code":"77","name":"Seine et Marne"},"coords":{"latitude":"48.4667","longitude":"2.51667"}},
{"name":"Saint Germain sur Morin","zipcode":"77860","county":{"code":"77","name":"Seine et Marne"},"coords":{"latitude":"48.8833","longitude":"2.85"}},
{"name":"Saint Hilliers","zipcode":"77160","county":{"code":"77","name":"Seine et Marne"},"coords":{"latitude":"48.6167","longitude":"3.26667"}},
{"name":"Saint Jean les Deux Jumeaux","zipcode":"77660","county":{"code":"77","name":"Seine et Marne"},"coords":{"latitude":"48.95","longitude":"3.01667"}},
{"name":"Saint Just en Brie","zipcode":"77370","county":{"code":"77","name":"Seine et Marne"},"coords":{"latitude":"48.6","longitude":"3.1"}},
{"name":"Saint L\u00e9ger","zipcode":"77510","county":{"code":"77","name":"Seine et Marne"},"coords":{"latitude":"48.8333","longitude":"3.25"}},
{"name":"Saint Loup de Naud","zipcode":"77650","county":{"code":"77","name":"Seine et Marne"},"coords":{"latitude":"48.5333","longitude":"3.2"}},
{"name":"Saint M\u00e9ry","zipcode":"77720","county":{"code":"77","name":"Seine et Marne"},"coords":{"latitude":"48.5667","longitude":"2.81667"}},
{"name":"Saint Mamm\u00e8s","zipcode":"77670","county":{"code":"77","name":"Seine et Marne"},"coords":{"latitude":"48.3833","longitude":"2.81667"}},
{"name":"Saint Mard","zipcode":"77230","county":{"code":"77","name":"Seine et Marne"},"coords":{"latitude":"49.0333","longitude":"2.7"}},
{"name":"Saint Mars Vieux Maisons","zipcode":"77320","county":{"code":"77","name":"Seine et Marne"},"coords":{"latitude":"0","longitude":"0"}},
{"name":"Saint Martin des Champs","zipcode":"77320","county":{"code":"77","name":"Seine et Marne"},"coords":{"latitude":"0","longitude":"0"}},
{"name":"Saint Martin du Boschet","zipcode":"77320","county":{"code":"77","name":"Seine et Marne"},"coords":{"latitude":"48.7333","longitude":"3.41667"}},
{"name":"Saint Martin en Bi\u00e8re","zipcode":"77630","county":{"code":"77","name":"Seine et Marne"},"coords":{"latitude":"48.4333","longitude":"2.56667"}},
{"name":"Saint Mesmes","zipcode":"77410","county":{"code":"77","name":"Seine et Marne"},"coords":{"latitude":"48.9833","longitude":"2.7"}},
{"name":"Saint Ouen en Brie","zipcode":"77720","county":{"code":"77","name":"Seine et Marne"},"coords":{"latitude":"48.55","longitude":"2.91667"}},
{"name":"Saint Ouen sur Morin","zipcode":"77750","county":{"code":"77","name":"Seine et Marne"},"coords":{"latitude":"48.9","longitude":"3.2"}},
{"name":"Saint Pathus","zipcode":"77178","county":{"code":"77","name":"Seine et Marne"},"coords":{"latitude":"49.0667","longitude":"2.8"}},
{"name":"Saint Pierre l\u00e8s Nemours","zipcode":"77140","county":{"code":"77","name":"Seine et Marne"},"coords":{"latitude":"48.2667","longitude":"2.68333"}},
{"name":"Saint R\u00e9my la Vanne","zipcode":"77320","county":{"code":"77","name":"Seine et Marne"},"coords":{"latitude":"0","longitude":"0"}},
{"name":"Saints","zipcode":"77120","county":{"code":"77","name":"Seine et Marne"},"coords":{"latitude":"48.75","longitude":"3.05"}},
{"name":"Saint Sauveur l\u00e8s Bray","zipcode":"77480","county":{"code":"77","name":"Seine et Marne"},"coords":{"latitude":"48.4333","longitude":"3.2"}},
{"name":"Saint Sauveur sur Ecole","zipcode":"77930","county":{"code":"77","name":"Seine et Marne"},"coords":{"latitude":"48.4833","longitude":"2.55"}},
{"name":"Saint Sim\u00e9on","zipcode":"77169","county":{"code":"77","name":"Seine et Marne"},"coords":{"latitude":"48.8","longitude":"3.2"}},
{"name":"Saint Soupplets","zipcode":"77165","county":{"code":"77","name":"Seine et Marne"},"coords":{"latitude":"49.0333","longitude":"2.8"}},
{"name":"Saint Thibault des Vignes","zipcode":"77400","county":{"code":"77","name":"Seine et Marne"},"coords":{"latitude":"48.8667","longitude":"2.68333"}},
{"name":"Salins","zipcode":"77148","county":{"code":"77","name":"Seine et Marne"},"coords":{"latitude":"48.4167","longitude":"3.01667"}},
{"name":"Sammeron","zipcode":"77260","county":{"code":"77","name":"Seine et Marne"},"coords":{"latitude":"48.95","longitude":"3.08333"}},
{"name":"Samois sur Seine","zipcode":"77920","county":{"code":"77","name":"Seine et Marne"},"coords":{"latitude":"48.45","longitude":"2.75"}},
{"name":"Samoreau","zipcode":"77210","county":{"code":"77","name":"Seine et Marne"},"coords":{"latitude":"48.4167","longitude":"2.75"}},
{"name":"Sancy","zipcode":"77580","county":{"code":"77","name":"Seine et Marne"},"coords":{"latitude":"0","longitude":"0"}},
{"name":"Sancy l\u00e8s Provins","zipcode":"77320","county":{"code":"77","name":"Seine et Marne"},"coords":{"latitude":"48.7","longitude":"3.38333"}},
{"name":"Savigny le Temple","zipcode":"77176","county":{"code":"77","name":"Seine et Marne"},"coords":{"latitude":"48.5667","longitude":"2.58333"}},
{"name":"Savins","zipcode":"77650","county":{"code":"77","name":"Seine et Marne"},"coords":{"latitude":"48.5167","longitude":"3.2"}},
{"name":"Seine Port","zipcode":"77240","county":{"code":"77","name":"Seine et Marne"},"coords":{"latitude":"48.55","longitude":"2.55"}},
{"name":"Sept Sorts","zipcode":"77260","county":{"code":"77","name":"Seine et Marne"},"coords":{"latitude":"48.9333","longitude":"3.1"}},
{"name":"Serris","zipcode":"77700","county":{"code":"77","name":"Seine et Marne"},"coords":{"latitude":"48.85","longitude":"2.78333"}},
{"name":"Servon","zipcode":"77170","county":{"code":"77","name":"Seine et Marne"},"coords":{"latitude":"48.7167","longitude":"2.58333"}},
{"name":"Signy Signets","zipcode":"77640","county":{"code":"77","name":"Seine et Marne"},"coords":{"latitude":"48.9333","longitude":"3.06667"}},
{"name":"Sigy","zipcode":"77520","county":{"code":"77","name":"Seine et Marne"},"coords":{"latitude":"48.4667","longitude":"3.18333"}},
{"name":"Sivry Courtry","zipcode":"77115","county":{"code":"77","name":"Seine et Marne"},"coords":{"latitude":"48.5333","longitude":"2.75"}},
{"name":"Sognolles en Montois","zipcode":"77520","county":{"code":"77","name":"Seine et Marne"},"coords":{"latitude":"48.5167","longitude":"3.16667"}},
{"name":"Soignolles en Brie","zipcode":"77111","county":{"code":"77","name":"Seine et Marne"},"coords":{"latitude":"48.65","longitude":"2.68333"}},
{"name":"Soisy Bouy","zipcode":"77650","county":{"code":"77","name":"Seine et Marne"},"coords":{"latitude":"48.5167","longitude":"3.3"}},
{"name":"Solers","zipcode":"77111","county":{"code":"77","name":"Seine et Marne"},"coords":{"latitude":"48.65","longitude":"2.71667"}},
{"name":"Souppes sur Loing","zipcode":"77460","county":{"code":"77","name":"Seine et Marne"},"coords":{"latitude":"48.1833","longitude":"2.73333"}},
{"name":"Sourdun","zipcode":"77171","county":{"code":"77","name":"Seine et Marne"},"coords":{"latitude":"48.5333","longitude":"3.35"}},
{"name":"Tancrou","zipcode":"77440","county":{"code":"77","name":"Seine et Marne"},"coords":{"latitude":"49","longitude":"3.05"}},
{"name":"Th\u00e9nisy","zipcode":"77520","county":{"code":"77","name":"Seine et Marne"},"coords":{"latitude":"48.4833","longitude":"3.18333"}},
{"name":"Thieux","zipcode":"77230","county":{"code":"77","name":"Seine et Marne"},"coords":{"latitude":"49.0167","longitude":"2.66667"}},
{"name":"Thomery","zipcode":"77810","county":{"code":"77","name":"Seine et Marne"},"coords":{"latitude":"48.4","longitude":"2.78333"}},
{"name":"Thorigny sur Marne","zipcode":"77400","county":{"code":"77","name":"Seine et Marne"},"coords":{"latitude":"48.8833","longitude":"2.71667"}},
{"name":"Thoury F\u00e9rottes","zipcode":"77156","county":{"code":"77","name":"Seine et Marne"},"coords":{"latitude":"48.2833","longitude":"2.95"}},
{"name":"Tigeaux","zipcode":"77163","county":{"code":"77","name":"Seine et Marne"},"coords":{"latitude":"48.8333","longitude":"2.91667"}},
{"name":"Torcy","zipcode":"77200","county":{"code":"77","name":"Seine et Marne"},"coords":{"latitude":"48.85","longitude":"2.65"}},
{"name":"Touquin","zipcode":"77131","county":{"code":"77","name":"Seine et Marne"},"coords":{"latitude":"48.7333","longitude":"3.01667"}},
{"name":"Tournan en Brie","zipcode":"77220","county":{"code":"77","name":"Seine et Marne"},"coords":{"latitude":"48.7333","longitude":"2.76667"}},
{"name":"Tousson","zipcode":"77123","county":{"code":"77","name":"Seine et Marne"},"coords":{"latitude":"48.35","longitude":"2.46667"}},
{"name":"Treuzy Levelay","zipcode":"77710","county":{"code":"77","name":"Seine et Marne"},"coords":{"latitude":"48.2833","longitude":"2.8"}},
{"name":"Trilbardou","zipcode":"77450","county":{"code":"77","name":"Seine et Marne"},"coords":{"latitude":"48.95","longitude":"2.8"}},
{"name":"Trilport","zipcode":"77470","county":{"code":"77","name":"Seine et Marne"},"coords":{"latitude":"48.95","longitude":"2.95"}},
{"name":"Trocy en Multien","zipcode":"77440","county":{"code":"77","name":"Seine et Marne"},"coords":{"latitude":"49.05","longitude":"2.96667"}},
{"name":"Ury","zipcode":"77760","county":{"code":"77","name":"Seine et Marne"},"coords":{"latitude":"48.3333","longitude":"2.6"}},
{"name":"Ussy sur Marne","zipcode":"77260","county":{"code":"77","name":"Seine et Marne"},"coords":{"latitude":"48.95","longitude":"3.08333"}},
{"name":"Vaires sur Marne","zipcode":"77360","county":{"code":"77","name":"Seine et Marne"},"coords":{"latitude":"48.8667","longitude":"2.65"}},
{"name":"Valence en Brie","zipcode":"77830","county":{"code":"77","name":"Seine et Marne"},"coords":{"latitude":"48.4333","longitude":"2.88333"}},
{"name":"Vanvill\u00e9","zipcode":"77370","county":{"code":"77","name":"Seine et Marne"},"coords":{"latitude":"48.55","longitude":"3.1"}},
{"name":"Varennes sur Seine","zipcode":"77130","county":{"code":"77","name":"Seine et Marne"},"coords":{"latitude":"48.3667","longitude":"2.91667"}},
{"name":"Varreddes","zipcode":"77910","county":{"code":"77","name":"Seine et Marne"},"coords":{"latitude":"49","longitude":"2.93333"}},
{"name":"Vaucourtois","zipcode":"77580","county":{"code":"77","name":"Seine et Marne"},"coords":{"latitude":"48.9","longitude":"2.95"}},
{"name":"Vaudoy en Brie","zipcode":"77141","county":{"code":"77","name":"Seine et Marne"},"coords":{"latitude":"48.6833","longitude":"3.08333"}},
{"name":"Vaux le P\u00e9nil","zipcode":"77000","county":{"code":"77","name":"Seine et Marne"},"coords":{"latitude":"48.5333","longitude":"2.66667"}},
{"name":"Vaux sur Lunain","zipcode":"77710","county":{"code":"77","name":"Seine et Marne"},"coords":{"latitude":"48.2167","longitude":"2.93333"}},
{"name":"Vendrest","zipcode":"77440","county":{"code":"77","name":"Seine et Marne"},"coords":{"latitude":"49.05","longitude":"3.1"}},
{"name":"Veneux les Sablons","zipcode":"77250","county":{"code":"77","name":"Seine et Marne"},"coords":{"latitude":"48.3667","longitude":"2.8"}},
{"name":"Verdelot","zipcode":"77510","county":{"code":"77","name":"Seine et Marne"},"coords":{"latitude":"48.8667","longitude":"3.36667"}},
{"name":"Verneuil l'Etang","zipcode":"77390","county":{"code":"77","name":"Seine et Marne"},"coords":{"latitude":"48.6333","longitude":"2.83333"}},
{"name":"Vernou la Celle sur Seine","zipcode":"77670","county":{"code":"77","name":"Seine et Marne"},"coords":{"latitude":"0","longitude":"0"}},
{"name":"Vert Saint Denis","zipcode":"77240","county":{"code":"77","name":"Seine et Marne"},"coords":{"latitude":"48.5667","longitude":"2.61667"}},
{"name":"Vieux Champagne","zipcode":"77370","county":{"code":"77","name":"Seine et Marne"},"coords":{"latitude":"48.5833","longitude":"3.13333"}},
{"name":"Vignely","zipcode":"77450","county":{"code":"77","name":"Seine et Marne"},"coords":{"latitude":"48.9333","longitude":"2.81667"}},
{"name":"Villeb\u00e9on","zipcode":"77710","county":{"code":"77","name":"Seine et Marne"},"coords":{"latitude":"48.2","longitude":"2.93333"}},
{"name":"Villecerf","zipcode":"77250","county":{"code":"77","name":"Seine et Marne"},"coords":{"latitude":"48.3333","longitude":"2.85"}},
{"name":"Villemar\u00e9chal","zipcode":"77710","county":{"code":"77","name":"Seine et Marne"},"coords":{"latitude":"48.2667","longitude":"2.86667"}},
{"name":"Villemareuil","zipcode":"77470","county":{"code":"77","name":"Seine et Marne"},"coords":{"latitude":"48.9167","longitude":"2.98333"}},
{"name":"Villemer","zipcode":"77250","county":{"code":"77","name":"Seine et Marne"},"coords":{"latitude":"48.3","longitude":"2.83333"}},
{"name":"Villenauxe la Petite","zipcode":"77480","county":{"code":"77","name":"Seine et Marne"},"coords":{"latitude":"48.4","longitude":"3.3"}},
{"name":"Villeneuve le Comte","zipcode":"77174","county":{"code":"77","name":"Seine et Marne"},"coords":{"latitude":"48.8167","longitude":"2.83333"}},
{"name":"Villeneuve les Bordes","zipcode":"77154","county":{"code":"77","name":"Seine et Marne"},"coords":{"latitude":"48.4833","longitude":"3.05"}},
{"name":"Villeneuve Saint Denis","zipcode":"77174","county":{"code":"77","name":"Seine et Marne"},"coords":{"latitude":"48.8167","longitude":"2.8"}},
{"name":"Villeneuve sous Dammartin","zipcode":"77230","county":{"code":"77","name":"Seine et Marne"},"coords":{"latitude":"49.0333","longitude":"2.63333"}},
{"name":"Villeneuve sur Bellot","zipcode":"77510","county":{"code":"77","name":"Seine et Marne"},"coords":{"latitude":"48.8667","longitude":"3.35"}},
{"name":"Villenoy","zipcode":"77124","county":{"code":"77","name":"Seine et Marne"},"coords":{"latitude":"48.95","longitude":"2.86667"}},
{"name":"Villeparisis","zipcode":"77270","county":{"code":"77","name":"Seine et Marne"},"coords":{"latitude":"48.9333","longitude":"2.61667"}},
{"name":"Villeroy","zipcode":"77410","county":{"code":"77","name":"Seine et Marne"},"coords":{"latitude":"48.9833","longitude":"2.78333"}},
{"name":"Ville Saint Jacques","zipcode":"77130","county":{"code":"77","name":"Seine et Marne"},"coords":{"latitude":"48.3333","longitude":"2.9"}},
{"name":"Villevaud\u00e9","zipcode":"77410","county":{"code":"77","name":"Seine et Marne"},"coords":{"latitude":"48.9167","longitude":"2.65"}},
{"name":"Villiers en Bi\u00e8re","zipcode":"77190","county":{"code":"77","name":"Seine et Marne"},"coords":{"latitude":"48.4833","longitude":"2.6"}},
{"name":"Villiers Saint Georges","zipcode":"77560","county":{"code":"77","name":"Seine et Marne"},"coords":{"latitude":"48.65","longitude":"3.41667"}},
{"name":"Villiers sous Grez","zipcode":"77760","county":{"code":"77","name":"Seine et Marne"},"coords":{"latitude":"48.3167","longitude":"2.65"}},
{"name":"Villiers sur Morin","zipcode":"77580","county":{"code":"77","name":"Seine et Marne"},"coords":{"latitude":"48.8667","longitude":"2.9"}},
{"name":"Villiers sur Seine","zipcode":"77114","county":{"code":"77","name":"Seine et Marne"},"coords":{"latitude":"48.45","longitude":"3.36667"}},
{"name":"Villuis","zipcode":"77480","county":{"code":"77","name":"Seine et Marne"},"coords":{"latitude":"48.4167","longitude":"3.35"}},
{"name":"Vimpelles","zipcode":"77520","county":{"code":"77","name":"Seine et Marne"},"coords":{"latitude":"48.4333","longitude":"3.16667"}},
{"name":"Vinantes","zipcode":"77230","county":{"code":"77","name":"Seine et Marne"},"coords":{"latitude":"49.0167","longitude":"2.73333"}},
{"name":"Vincy Manoeuvre","zipcode":"77139","county":{"code":"77","name":"Seine et Marne"},"coords":{"latitude":"49.0833","longitude":"2.96667"}},
{"name":"Voinsles","zipcode":"77540","county":{"code":"77","name":"Seine et Marne"},"coords":{"latitude":"48.6833","longitude":"3"}},
{"name":"Voisenon","zipcode":"77950","county":{"code":"77","name":"Seine et Marne"},"coords":{"latitude":"48.5667","longitude":"2.66667"}},
{"name":"Voulangis","zipcode":"77580","county":{"code":"77","name":"Seine et Marne"},"coords":{"latitude":"48.8667","longitude":"2.9"}},
{"name":"Voulton","zipcode":"77560","county":{"code":"77","name":"Seine et Marne"},"coords":{"latitude":"48.6167","longitude":"3.33333"}},
{"name":"Voulx","zipcode":"77940","county":{"code":"77","name":"Seine et Marne"},"coords":{"latitude":"48.2833","longitude":"2.96667"}},
{"name":"Vulaines l\u00e8s Provins","zipcode":"77160","county":{"code":"77","name":"Seine et Marne"},"coords":{"latitude":"48.55","longitude":"3.21667"}},
{"name":"Vulaines sur Seine","zipcode":"77870","county":{"code":"77","name":"Seine et Marne"},"coords":{"latitude":"48.4333","longitude":"2.76667"}},
{"name":"Y\u00e8bles","zipcode":"77390","county":{"code":"77","name":"Seine et Marne"},"coords":{"latitude":"48.6333","longitude":"2.76667"}}
]
